id,lat,lon,name
5702030,46.6805465,7.8274119,Migrol
5702071,46.6834149,7.8445587,Avia
17407058,47.0547266,7.6253785,Moveri Burgdorf
27069561,47.3963906,8.6233174,SOCAR Zur Schmiede
27125026,47.4010933,8.6199554,BP Garage Tresch
29881492,47.686119,8.621418,Shell Rheinfall
29885121,47.6773289,8.6005845,Wegmüller
30011079,47.714297,8.5161525,Bär - Benzin und Diesel
33157581,47.1554377,9.038236,BP
33593043,47.1327975,9.0875692,Garage Jörg AG
34026947,47.1782564,9.0513173,BP
34026949,47.2112768,9.0283638,Agrola
34078845,47.4956958,8.7129812,Migrol Service Zürcherstrasse
47744371,47.3995257,8.4973287,Coop Tankstelle Höngg
52741787,47.3815928,8.5095448,Shell Hardau
54754456,47.1211551,9.122469,Eni
59185470,47.2376219,8.7276971,AVIA
73124669,47.3811098,8.4921479,Migrol Service Flurstrasse
82462301,47.6556089,8.857671,Keusch
82462303,47.6577964,8.8533445,Kofi's
83423432,47.3374315,8.5302419,Shell Wollishofen
83424882,47.3398175,8.5298146,Avia Service Wollishofen
84513888,47.3236425,8.5187472,Eni Sihltalstrasse
86035999,47.0242031,8.2963023,Agip
89266715,47.1832564,7.9810905,Agrola
94628702,47.0265599,8.2991398,Shell Kriens
95582040,47.0495135,9.0600281,Avia
98838885,47.0678093,9.0577963,Coop Tankstelle
98838886,47.0725304,9.0560821,SOCAR Glarnerland
98838887,47.0950062,9.0680391,Oil
101392168,47.3890134,8.695437,AVIA
102726613,47.2169721,8.5763211,Migrol Service Sihlbrugg
103096904,47.3459074,8.534658,Avia Wollishofen Franz
103102957,47.3485725,8.5340966,BP Service Wollishofen
110964235,47.5278765,7.7003458,BP
111247327,47.5080581,8.5437196,Migrol Tankstelle AMAG Bachenbülach
125683037,47.5250153,7.6900191,BP
130216563,47.4804183,8.2358504,AVIA
130216565,47.4811412,8.2391514,Shell
130216566,47.4842929,8.242173,BP
135633811,47.3980896,8.5399105,Migrol Tankstelle Milchbuck
148213917,47.0067564,7.1099653,Avia
148466650,47.4387423,8.3478347,Shell Würenlos-Wald
148466654,47.4383077,8.3470877,Shell Würenlos-Limmat
153289980,47.5389027,7.7343968,Coop Tankstelle
171100087,47.2028273,9.0072882,Kessler Garage
179047160,47.2327033,8.6143556,Tankstelle Svabic
190344999,47.3795583,9.5445168,Schöntalgarage
194647104,47.4149012,9.6323521,"Coop pronto, Heerbrugg"
201387216,47.4352023,9.1387028,Coop Tankstelle
208814607,47.1958318,7.6992632,Landi
213320801,47.2291296,9.0232582,Shell
220030470,47.5023332,8.0316396,Tamoil
220830818,47.2190519,7.7873795,Migrol Service Langenthal
243881645,47.5882149,8.8857991,AVIA
244479991,46.8164575,9.2670205,Coop
246650988,47.2300466,8.9620388,Migrol Service Schmerikon
247345256,47.2269883,7.8404587,Eni
247702040,47.7046119,8.8205492,Migrol Service Ramsen
247702174,47.706782,8.820345,Migrol Tankstelle Ramsen
247702175,47.7092628,8.8208431,Eni
248973336,47.200788,9.3375706,Avia
249500787,47.374827,8.6428183,SOCAR Fällanden
251364446,47.5659008,9.0967582,Coop Tankstelle
251364447,47.5629712,9.1047017,Migrol Service Weinfelden
253239439,46.9650682,7.4638599,Shell
254289007,47.2259769,8.2621212,Scherer Hitzkirch
255007349,47.4436565,8.465643,Coop Tankstelle Regensdorf
256757662,46.7809278,7.6041999,Tamoil
257281284,47.1884095,8.396334,Auto Suter
258875594,47.1913959,8.8947716,Avia
260443215,47.5809034,7.5942068,Migrol Service Kleinhüningen
261741477,47.0254724,6.8895249,Le Pit-Stop
263923036,47.3555523,8.3260826,Shell Fohlenweide
264065504,47.4155139,8.5903409,Shell Wallisellen Zentrum
264073160,47.4665171,8.2915271,coop pronto
264529525,46.9715008,9.5513162,Coop
264771144,47.3450623,7.9074428,Migrol Service Olten
264794355,47.4128994,8.6168482,Coop Tankstelle Dietlikon
264889459,47.3042342,8.6906319,Avia
265569040,47.2742006,8.7248486,Avia
265627180,46.9590478,7.4559202,Migrol Breitenrain
265718046,46.9435757,6.8301809,Les Tilles
265823655,47.0779673,7.5746866,Coop
266285284,47.4502033,8.2907357,SOCAR Dättwil
266285329,47.4518737,8.2897349,Tamoil
266542839,46.5458,6.5871529,BP
266542840,46.548827,6.5799914,Tamoil
266542843,47.0977652,6.8367095,Tamoil
266561086,47.3232719,7.8042047,Tamoil
266825152,47.1812476,8.8976164,Agrola
266953468,47.2531303,8.6194521,Avia
267053552,46.5535448,6.5707336,Migrol
267053810,46.505564,6.4859824,Eni
267053813,46.50091,6.4844802,Eni
267211865,46.4744222,6.4131575,BP
267924554,47.3971141,8.0409728,Ruedi Rüssel
268469414,47.3695212,8.5107127,Tankstelle Wyss
268742610,47.4048172,8.0919529,Tamoil
268893437,46.76141,7.6272964,Grabengut
269059096,46.778549,6.649017,Cuendet
269120240,47.3521481,8.722673,Shell Im Brunnen
269304240,46.5335973,6.5850826,Shell
269304246,46.5345567,6.5652376,Shell
269450517,47.5777955,7.5964463,Coop Tankstelle
269654731,47.5484517,7.546409,Migrol Service Allschwil
269665687,46.7140743,7.5662706,Agrola
269952262,46.5098465,6.650494,Shell
270051291,46.7283004,8.1836091,SOCAR
270156438,47.0739754,8.2061972,Agrola
270288402,46.9694323,8.3525486,Agrola TopShop
270288802,46.9682968,8.3536859,Auto Wagner
271223009,47.3534438,8.5768921,BP Balgrist
272631681,47.1804162,7.6656035,Hostettler
272725604,47.2258573,7.6161562,BP Deitingen Süd
273223793,47.5615058,7.5994793,Migrol Service Riehenstrasse
273529123,46.8487124,7.189576,Zentrum-Garage Düdingen AG
273529124,46.8445768,7.1907102,Garage Vonlanthen AG
274077459,47.0159124,6.9063136,Garage de la Station
274592567,47.4896462,7.598234,Migrol Service Reinach BL
274678779,47.5258531,7.6037741,SOCAR Münchenstein
274716746,47.4236549,7.5047201,Ecostop Tankstelle
274815548,47.2466719,8.4610784,Avia Zürichstrasse
274978894,47.4832546,7.5461208,AVIA
274980463,47.2980447,8.3164949,Migrol Service Boswil
275422339,46.9454893,7.4712058,Shell
276414834,47.1985651,7.7869265,Garage Brunnbach
277469389,47.7030543,8.6453087,SOCAR Gruben
278205001,47.2295962,8.8437234,SOCAR Jona
278205018,47.2969244,8.8399034,Avia
278232271,46.6047314,6.5270144,Eni
278792162,46.9369824,7.4755179,Migrol
279370610,47.4890282,8.28805,Freie Tankstelle Velo Meier
279909825,47.2040191,8.7641063,Shell Freienbach
280528115,46.9546702,7.4332051,Migrol
281282674,46.2597266,6.947662,BP
281283867,46.3018161,6.978265,BP
281284025,46.3935598,6.921506,Shell
281284791,46.1111272,7.077013,Station Tamoil Quartz
281286146,46.109953,7.0773462,Station BP Martigny
281291631,46.2362395,6.9265364,Garage Defago - Toyota
281761432,46.898611,8.2506888,Socar
282180757,47.4009426,7.5424953,Remo Schmid
282439888,46.9732785,7.485325,Tamoil
283045787,47.4079233,7.5421063,Garage Lantz
283181019,47.3860523,8.5319464,Migrol Service Sihlquai
283201896,47.2018784,8.790165,BP
283213549,46.9368196,7.432424,Eni
284931676,46.2304848,6.0849653,Shell
286048215,47.1937469,7.4053771,SOCAR Grenchen
286056220,47.3292879,8.2023524,Feldgarage
286770232,46.752103,8.0483903,Socar
286782225,47.7235876,8.6397406,Avia
286879558,46.8866278,7.3890744,Agrola
286879677,46.9250194,7.416907,Ruedi Rüssel
287320953,47.1023815,6.8333999,BP Shop
287630914,47.1668796,9.4664798,Coop
288557316,47.4898013,7.5896372,Avia
288740214,46.7680292,7.3523004,Riffenmatt Garage GmbH
291415329,47.6550521,9.1647784,SOCAR Kreuzlingen
291769933,46.7707841,7.1634028,Garage du Tennis Marly SA
292331528,47.5600805,9.1320734,Agrola
292362274,46.7558732,7.1478931,Mini prix
292507777,46.7802595,6.6533462,Garage Bel-Air
293011493,47.5601728,8.4925388,Shell
293030011,47.3450854,8.7019951,Lenzlinger Söhne AG
293254091,46.818486,8.3979432,Shell
293585451,47.4727471,7.7555382,Coop Tankstelle
294055540,47.1102304,8.3211384,Migrol Tankstelle Emmen
294055589,47.1216181,8.3416496,Avia
295747025,47.119605,7.2429595,Socar
296253069,47.0893332,6.8075691,Coop Pronto
296941470,47.2140841,8.7004828,Avia
296990388,47.4275979,7.7714448,Migrol
297070232,46.7848989,6.6332171,Garage Bouby-Rolls
297302039,47.4070106,8.7269393,Shell Illnau
297993545,47.2299301,8.6671966,AVIA Wädenswil
298042177,47.5615782,7.5679874,BP
298681614,47.4940397,9.4683968,Garage Zender
298715804,47.4800585,9.0297703,BEBECO
298873230,46.2339875,6.0545816,Socar Meyrin
299311915,46.6246348,8.0304265,Oeltrans
299363864,47.1790298,8.4317033,Agrola
299364634,47.1795921,8.4338162,AutoSuter
299752761,47.3803229,8.5463543,Scall
299813447,47.2867307,8.5433519,Voegtlin-Meyer
299813627,46.9685847,6.8482514,Miniprix
300418712,47.393705,8.5059844,Avia Hardturmstrasse
300514678,47.7921289,8.6128299,SOCAR Bargen
300514679,47.7924263,8.6121257,Migrol Service Bargen
301208147,47.3728411,8.5211422,BP Service Wiedikon
301407672,47.4865145,8.2949688,Argovia Tankstelle
303314859,47.3629959,9.0734928,BP
303699177,47.4518342,8.7012565,BP Kemptthal Nord
303844420,46.9713525,7.3553734,Agrola
304014558,46.0872339,7.2068309,St Christophe
304917714,47.4541266,8.4383363,SOCAR Buchs ZH
304992273,47.4585509,8.4068901,Avia Harbernstrasse
304993060,47.4460704,8.4631797,Agrola Regensdorf
305469317,47.0012366,7.4619783,Avia
305469322,47.0043064,7.4629537,SOCAR Zollikofen
305701426,47.4448843,8.6233539,Avia Bassersdorf
305707837,47.4445742,8.6251146,SOCAR Bassersdorf
305765115,47.0631953,7.3348212,MACRO SWISS ENERGY AG
306231847,46.7038,6.5687812,Simond
306498031,46.5825559,6.6012717,Shell
307028624,47.2111081,7.5442211,Migrol Tankstelle Solothurn
307121153,47.4186697,8.6844858,AVIA
307121156,47.4220428,8.6848857,Migrol Tankstelle Effretikon
307363530,47.4620039,8.3353957,Coop
307661791,47.2370963,8.6374727,Ruedi Rüssel
307662123,47.2375535,8.6452619,Winterberg
307695032,47.2237124,7.7784468,AVIA
307698374,47.234814,9.0216688,BP
307821699,46.8623721,7.4607301,Ruedi Rüssel
308075661,46.9435046,7.3711499,Shell
308077581,46.9069076,7.2358556,Agrola
309112387,47.4344986,8.7635897,AVIA
309425295,47.327756,8.7824754,BP Zürcherstrasse
309431866,47.0904271,6.8085505,Migrol
309431882,47.093177,6.8150642,Entilles
309765158,47.0636968,6.7607215,Socar
309986668,46.0537291,8.9728703,Migrol
310205995,47.3968963,8.4404596,BP
310299936,47.2974998,7.9359255,SOCAR Oftringen
310314796,47.4294761,8.6871544,SOCAR Effretikon
310390136,46.0094621,8.9640309,Socar
310567715,46.3199827,10.0592318,Migrol
310668275,47.1057836,8.3795569,Agrola
310668277,47.1167598,8.3914953,Centrum Garage Notter
310875963,47.2302544,8.8481246,Migrol Tankstelle AMAG Jona
311097320,46.889789,7.2243433,Avia
311185159,47.4403024,9.4101696,BP
311252839,46.4237682,6.2544241,Coop Pronto
311319045,47.229728,8.4785611,Migrol Tankstelle Mettmenstetten
311976893,47.4010238,8.4915916,Shell Winzerstrasse
312012092,47.4141963,8.518214,Migrol Service Glaubten
312365830,46.1281589,7.0600696,Shell
312468153,47.1247819,7.2596305,Tamoil
312630282,47.1296307,7.2547306,Marché Brügg
313192016,47.4305917,8.9564422,Landi
313268393,47.3802915,8.4940158,Shell Rautistrasse
313783389,46.4767158,6.4011642,Coop
315513529,47.1008381,8.2673762,AVIA Tankstelle
316022671,47.4616297,9.5963017,Avia
316022885,47.4439922,9.5323785,BP
317038642,47.1433014,7.3733308,Juragarage-Peter
317045478,47.4712239,9.0585959,Avia
317828998,46.1738259,6.1283334,BP
318410355,47.419653,8.556201,Migrol Service Thurgauerstrasse
319114593,46.3152191,6.1919134,BP
319463995,47.4206438,9.36708,socar
319504511,46.4897328,6.3989245,Tamoil
320040835,47.4932576,8.8987116,Coop Tankstelle
320040876,47.4935613,8.8982352,Ruedi Rüssel
320182673,47.4938451,8.546728,Migrol Tankstelle Winkel
321271634,47.49898,8.7927573,AVIA
321362564,47.3917824,8.5424928,Tamoil
321853683,47.5062912,8.7141595,Avia
321855166,47.5111545,8.7604652,BP
322009546,46.1452015,6.1365929,Tamoil
322913188,47.0426407,8.5512547,Ruedi-Rüssel
323236561,47.4948853,8.3401247,Avia
324343384,47.3015936,8.4484256,Freie Tankstelle Zürcherstrasse
324648649,47.1858117,8.5209067,Migrol Service Baar
325054969,47.510109,7.6205122,Ruedi Rüssel
325787263,46.2037166,7.167091,Combustia
325851832,46.1848264,7.211407,Tamoil
327282170,46.5668634,6.558821,Migrol avec Magasin
328060238,45.9851267,8.936422,Shell
330142805,47.524994,8.5392925,Soli-Tankstelle
331317250,47.3674023,8.4943259,Migrol Service Triemli
331337817,46.6640423,9.5713655,Agrola
331589251,46.4711808,7.1281356,Agrola
333771406,47.3083286,7.9261251,Coop
334005113,47.4162331,9.3452637,Shell Service Waldau
335477010,47.2669797,8.6508957,Avia
335958350,47.390375,8.4913858,SOCAR Hohlstrasse
336019729,47.5574974,7.5469471,Coop Tankstelle
336601485,47.5995668,8.98116,Garage Bürki
338639819,47.3812597,8.5377769,Avia Service HB
339612237,47.2859721,8.5636417,Eni Thalwil
339612238,47.2864826,8.565863,BP Service Thalwil
339631367,47.2906713,8.4444262,Ruedi Rüssel Ottenbacherstrasse
339631500,47.2963684,8.4486157,Ruedi Rüssel Affolternstrasse
339957313,47.1966126,8.4810829,Avia
340381113,47.1546449,8.5599052,Migrol Tankstelle Schmidtli
343087168,47.6399737,9.2005165,Migrol Service Kreuzlingen
344194669,47.3176278,8.6669872,Shell Heuberg
344522057,46.5295496,9.8670469,bp
345328505,46.5572631,9.6246372,AVIA
345519391,47.1847934,8.683956,Ruedi Rüssel
346269257,47.4641549,8.9693339,Agrola
346406523,47.3232561,8.0219409,Avia
347351831,46.5181699,6.601295,Agip
347672312,46.5199316,6.630332,BP
349171294,47.198656,8.1084466,Garage Peter
349196976,47.0565682,8.2582774,Agrola
351947075,45.9820778,8.9294148,Esso
351947126,45.9806589,8.928934,Socar
351961987,46.1561379,8.9718321,Shell
352786909,46.9985153,6.7352154,Tamoil
353011599,47.4990816,7.7227859,SOCAR Füllinsdorf
353452474,47.5944448,7.6548837,bp
353452488,47.5919489,7.6529753,Avia
354407155,47.1130701,8.231858,BP
354548408,45.9937769,7.1825888,Tamoil
354593878,46.3082786,7.4694091,Eni
354633686,47.0623003,6.7574256,Coop
354695628,46.775381,7.1605758,Marché Gaillard
354850051,46.7592,7.0930799,Mini Prix
354850557,46.6432587,7.0637262,Garage de la Prairie
355232174,47.3416225,8.7155853,Avia
356056801,47.0859033,8.3464876,Migrol Service Ebikon
357231393,46.3063736,7.7511069,Fryand
357276942,46.3086349,7.7443331,Socar
357276951,46.3063782,7.750319,BP
357276994,46.303349,7.8012747,TAMOIL
357286346,46.2960807,7.8661349,Coop
357299631,46.2926024,7.8782351,Socar
357299672,46.2922381,7.8903445,Shell
357299691,46.2938618,7.9010155,Tamoil
357299708,46.2944104,7.9066116,BP
357312943,46.3075376,7.9648005,Tamoil
357329286,46.3230361,7.9882038,BP
360435741,46.5070058,6.6214654,Bateaux seulement
362795202,47.4258408,8.5478098,Shell Kolbenacker
362798141,47.4310129,8.5442164,Avia Glattalstrasse
363928734,46.9479904,10.3666863,Socar
363928741,46.9482689,10.366381,Migrol
363928771,46.9430137,10.358665,Migrol
364148994,46.6868797,7.6809306,Schönegg Garage
364779474,47.5462321,8.9595388,AVIA
364961808,47.4307159,9.636319,Agip
364961811,47.4307962,9.6358483,Shell
364961818,47.4311469,9.6345378,Avia
365933996,47.1281481,7.9973817,Coop
366112327,47.4438846,7.5983011,Migrol Tankstelle Grellingen
366590214,46.5031639,7.2870859,Avia
366785529,46.0180619,8.9619278,Eni
367085722,46.0239932,8.9659782,Shell
368286682,47.4821318,8.2124349,Migrol Service Windisch
369574530,47.1605058,7.2807866,Coop Pronto
370163795,46.7898569,7.1132621,Mini Prix
370171159,46.7677665,7.2002262,Miniprix Corpataux
370319481,46.456019,9.7907105,Socar
370382413,46.4658751,6.836337,Shell
370440105,47.0119027,6.9761983,Shell
370661427,47.5075392,7.7212426,Migrol Service Füllinsdorf
370661435,47.5075596,7.7208992,Migrol Tankstelle Füllinsdorf
370683555,46.6112522,7.0617905,Agip
370746834,47.4595255,8.3854725,Avia Landstrasse
370940073,46.20651,6.1095787,Shell
371009114,47.5183128,8.5927268,Migrol Tankstelle Embrach
371216706,46.9465199,7.3850241,Migrol Service Betlehem
371739009,46.6899318,7.6722379,Oeltrans AG
372974864,47.1164766,8.2000151,Landi Sempach-Station
373004907,46.0118935,8.9597563,Tamoil
373280989,47.1708686,8.0992783,Agrola
373802828,46.2323808,9.1029127,Eni
374188679,47.4911174,8.5033648,Avia
374570733,46.9546171,7.3318921,Haenggi
375944474,47.4431662,9.0714261,AVIA
377012210,47.4117175,8.4558201,Migrol Service Engstringen
377078146,46.9550024,7.2641814,Rüfenacht
378854352,46.6912023,6.9100826,Tamoil
378876538,46.6874474,6.9071126,Agrola
379083000,46.6153891,7.0520955,BP
379559846,47.1231221,7.9940004,Shell
379583597,46.9749883,6.8783443,Garage du Port
385677191,46.8227681,7.3408107,Tamoil
385677192,46.8230213,7.3407193,Migrol
388120351,47.4173263,8.2724217,Ruedi Rüssel
388172758,47.4119187,8.240108,Mazda
389611796,46.6759669,7.8657367,Tamoil
390009439,46.9348415,7.5007708,Brechtbühl CNG Erdgastankstelle (Automat)
391448263,46.6890352,7.8636754,Moveri
392016059,46.5975316,7.9072725,Avia
394819519,47.4739609,9.0035942,Avia
394822057,47.4773771,8.9978543,BP
400879398,46.0278265,8.9192002,Eni
401610876,47.3479425,8.3476132,AVIA
407913989,47.5127502,8.5431018,BP Tankstelle
408430808,47.0087191,9.496853,Coop
409482527,47.1995404,7.5812798,Kurth
410652571,47.4696534,7.8670182,Pianezze
410724759,46.5404748,6.8377021,Tamoil
410725357,46.5715008,6.8263704,BP
410844750,47.5008151,8.5978083,Landi
410849153,46.018061,8.9135089,Shell
411567767,47.4146182,9.3399466,AVIA
411872585,47.0071684,9.4989292,Garage Gut Bad Ragaz
412098237,47.31862,7.8032333,Coop Tankstelle
412723837,46.4670912,6.8361039,Migrol
412739768,46.1670717,9.0013866,Socar
412772914,46.4547571,6.8550841,eni
412779720,46.797761,7.6837257,Agrola
413332243,46.3253095,6.963197,Eni
413482557,46.7909331,7.5188161,Migrol
415651478,46.9934801,6.9277143,HK
418006104,47.106173,6.8343637,Bonny SA
418016506,46.5623473,6.6870242,Eni
418190212,47.1123327,9.215449,Tankstelle
418361738,46.6965857,6.4791179,Mini Prix
418364681,47.0687548,7.6007489,Migrol Service Burgdorf
418952812,47.362284,8.366332,Shell
419793549,46.9794619,9.4806514,Sandgrueb
419877172,46.3863281,6.8378986,MINI PRIX
420347109,47.4929508,7.0170192,Garage Pilou SARL
420437934,46.1121477,8.9318574,Shell
421941395,47.0576276,7.6294384,Agrola
421981859,47.2158393,8.573721,Coop
423352403,47.6942169,8.5715463,Agrola
427921820,47.262549,8.17665,Tamoil
428720432,46.6247728,6.4422236,Stop+Go
428876091,47.31532,8.5221094,Dangel
428933773,46.4685396,6.8327705,Eni
429161254,46.1846537,6.1373308,Eni
429360387,46.538263,6.7343295,Garage de Savigny
430264022,46.9635837,7.4814764,Hänggi
430399623,46.8327381,9.8536956,Shell
430444348,46.9997609,7.4644307,Agrola
430460537,47.0197233,7.4976559,Zentrum Tankstelle
430480451,46.95745,7.4861054,Eni
430829372,46.9568291,7.4839823,BP
430829373,46.9600335,7.4799152,Hänggi
430842487,46.9581795,7.4916026,Peter Brechtbühl AG
430905343,47.0175225,7.4908803,Migrol Service Schönbühl
431206375,46.6182993,6.4165305,Eni
432296457,47.2094875,9.4886231,Agrola
432296458,47.2112124,9.4943153,Coop
432615367,47.3159652,8.5302907,Avia Adliswil
433569065,47.3972404,9.0064483,Schmid-Garage AG
435573454,47.6843704,8.6600427,Coop Pronto
438227914,46.9542541,7.4333135,Ruedi Rüssel
440817437,47.3660407,9.5542563,Avia
440817438,47.3634959,9.5557017,Agrola
440848081,46.4107908,8.1515888,Tamoil
440891382,46.8152374,7.215482,BP
441134960,46.5052045,6.6765399,Tamoil
441595897,47.3506384,8.2723513,BP
441890755,47.6508092,9.1656162,Tamoil
442529871,47.2526094,7.6493802,Ruedi Rüssel
442592745,46.252595,7.0082419,Tamoil
442642800,47.3881888,9.652495,Coop Pronto Tankstelle
442642801,47.3884504,9.6515888,BP
442642802,47.3893601,9.6509158,Eni
442642803,47.3790862,9.6683762,Redfox Oil
442661254,46.1549418,8.9625001,Migrol
444007678,47.16551,8.290244,Coop
447307830,47.6062644,8.2320174,K. Nusser AG
447307833,47.60561,8.2312691,Shell-Service Koblenz
448165771,46.2508942,7.00238,Mini Prix
448167734,46.2496539,7.0133415,Station-Service Du Cropt SA
448294810,46.8890254,7.5211075,Agip Tankstelle Belp
449186802,46.9527363,8.2757388,Auto Dall'Omo
450602362,46.5564493,7.3746948,Coop pronto
450602370,46.6601511,7.5484331,Tamoil
450651181,46.6010259,10.4236186,Umbrail
450939177,46.962819,7.4527349,Coop Pronto
454582491,47.1345903,8.742489,Landi
454582502,47.1282521,8.7450831,AVIA
455338428,47.4649989,9.0345584,Auto Eberle
456381234,47.3874942,9.392037,BP
457333487,47.5434128,7.5894671,Avia
457679934,47.1311876,8.7659454,Shell
459174387,47.5236294,7.6943285,Coop Tankstelle
460886548,47.4608585,9.6028383,Avia Tankstelle
461145223,46.5751088,6.8395729,Station Eni
461764800,47.4984489,9.2315472,Migrol
467092484,46.6185369,6.5086556,RRG Léman
467136838,47.4325203,8.4684736,Tamoil
469414029,47.4073058,7.8448259,Garage Strub
470530851,47.1502011,7.2624599,BP
471127240,47.0727833,7.3075427,Esso
472703202,47.2281761,7.6206569,Eni Deitingen Nord
474732274,46.8182963,8.4127103,Robi Amstutz
474764443,47.603159,9.2874716,LGG
474982856,47.3702456,8.5125042,Avia Birmensdorferstrasse
475204226,47.2393184,8.921655,Esso
475921797,47.5490913,7.7712298,BP
476032346,47.467413,9.0284147,Bildfeld-Tankstelle AG
480320550,47.3617439,8.5181345,Tamoil
482113363,46.1936332,6.1418139,Tamoil
482156451,46.022178,8.9760212,Avia
482159115,46.0280886,8.9669231,BP
482163882,46.006899,8.9498052,ERG
482164256,46.0076176,8.9476058,Migrol
482693687,46.3761102,7.6254009,Agip
486059774,46.6684976,7.8697219,Shell
486060424,46.6681128,7.8695976,Migrol
488053482,46.9445843,7.4614161,Tamoil
492088256,45.9948965,8.9426818,BP
492088728,45.9837172,8.9307732,Avia
492090693,46.0140555,9.0174687,Eni
495554607,47.1327096,8.7444385,Avia
495554609,47.1391271,8.746331,Coop Tankstelle
497240616,46.3587532,8.9693791,Shell
497784329,47.6029279,9.0044066,SOCAR Müllheim
499595107,46.825464,6.9453756,Landi
500922433,47.4161953,8.5640414,SOCAR Opfikon
503445080,46.5009388,9.8447714,Kulm Garage
503621496,47.3160213,8.5798679,SOCAR Küsnacht-See
505816846,47.4302305,8.4658983,Eni
506123910,47.3108368,8.1147393,BP Tankstelle
506655898,47.0456856,8.3092877,Avia
514558190,46.965541,7.4656657,Migrol Service Winkelried
514598842,46.9546495,7.4600211,Avia
519720101,47.3893281,9.2892411,BP
533864350,47.5347184,7.7113994,Shell Augst
533864890,47.534798,7.7100491,Avia
534826542,47.2481368,8.6048958,Migrol Tankstelle AMAG Horgen
534836242,47.2376903,8.611854,Ruedi Rüssel
536852872,47.5515241,7.8035199,Avia
539543939,47.0059157,9.4996938,Garage Lutz
539553039,47.004656,9.5000223,Shell
540750897,45.9881697,8.9334663,Esso
542360398,47.3953437,9.6422287,Avia
542416037,47.4473818,8.4378679,Avia Dällikon
549072799,47.2713859,8.580952,Avia
550238619,47.5929159,8.9973738,Agrola
551693548,46.9910807,8.0634801,Opel Garage
559179878,47.0594599,8.8018332,Toyota
559179881,47.0607633,8.8026524,Eni
559179882,47.0612169,8.8029083,Migrol Tankstelle Unteriberg
559763141,47.2424106,8.4961167,Agrola Dorfplatz
559767599,46.955775,7.4264321,Shell
560114663,46.9441914,6.8426202,Tamoil
560391019,47.0144151,9.496763,Ruedi Rüssel
563266345,47.217409,7.7560457,Esso
563266349,47.2564785,7.8199406,Avia
563266351,47.2578293,7.8220424,Peter Brechtbühl AG
563266368,47.3500616,8.0006818,Avia
563266401,47.368858,8.0004404,Avia
564782369,47.017588,7.501495,Coop pronto
565569932,45.9565406,7.2092471,Jubin
566182962,47.2552871,8.6122837,SOCAR Horgen
567263410,47.6501137,8.866002,Eni
569351197,46.4774901,6.8610611,Riviera Produits Pétroliers SA
572456939,47.4209538,8.5025926,Shell Furttal
573368452,47.4917485,8.2205044,Migrol Service Brugg
574844723,47.464407,7.8428006,Landi
575172150,47.2886872,8.5740582,Coop Tankstelle Thalwil
578221549,47.3403588,8.5193947,SOCAR Manegg
582575103,47.2950949,8.2361211,Socar
582823240,46.1708527,6.1223264,Tamoil
583411720,47.3298119,8.0304155,SOCAR Kölliken Nord
584797716,47.5560512,7.5816624,Rudi Rüssel
589783503,46.3053703,6.9080525,Migrol
597414574,47.3024491,8.5463033,Avia
597703700,47.2076465,8.037217,Garage Wey
597703746,47.1772081,8.1098891,Mercedes-Benz Sursee
598161461,47.0342921,8.2865514,Avia Tankstelle
599551371,47.0201312,7.0418652,Coop
599765353,47.1866245,8.4753869,Coop
602689055,47.3504058,7.910048,Migrol Tankstelle
608491928,47.2466934,7.6098366,Garage Lemp
610438795,46.6176895,8.5659699,Hubrol
610450736,47.5872586,8.2944504,OIL! Tank and Go
611057606,47.5114381,8.544193,Migrol Service Bülach
611086591,47.5197883,8.5423099,Seematt-Shop
612768908,47.1826527,8.5245412,Agrola
613341712,46.7834025,7.2756737,Hofmatt-Garage AG
613341713,46.7478493,7.2888658,Garage Bifang Trachsel AG
613344818,46.8226096,7.1509847,Spurt
613344819,46.819515,7.15397,Tamoil
613346387,46.7370957,7.2920818,Eduard Zahnd AG
614591922,46.8205774,8.1779633,AVIA
615926568,47.6936323,8.6063662,Avia
616090346,46.7679901,7.2402606,Garage Bielmann
616098456,46.7541932,7.2903228,Garage Zbinden Walter
616255725,46.7426921,7.2813626,Zbinden Alfons
616280572,47.4786364,9.4812074,Coop
617264153,47.4866772,9.4015871,Seeblick Brandes AG
617311047,46.8539591,7.1910774,Garage-Carrosserie Fasel AG
623257608,47.1661279,9.4675745,Socar
623260650,47.1726778,9.4839681,AVIA
623872891,47.2518412,8.7676795,Agrola
625275843,46.7364953,7.2494658,Garage Schürli
627048168,47.0708565,8.2806249,Nasa
632362719,47.1872704,8.8612567,Agrola
634168057,47.5091032,8.5125684,Agrola
634456810,46.7204795,6.5411645,Agrola Landi
634456823,46.722212,6.5446195,Avia
635764780,46.9374117,7.4415693,ewb Erdgastankstelle
638460775,47.24914,7.6362105,Touring-Garage Schwägli
640061094,47.4684465,7.8625272,Tamoil
640061098,47.4700755,7.8689668,Avia
641086412,47.4699424,7.8658653,Tamoil
641170583,47.3635748,8.0918191,Coop Pronto Shop mit Tankstelle
641252985,47.3695944,8.081721,Benzindiscount
641289168,47.3318925,8.037322,Agrola
641898421,47.4413754,9.4237203,SB Turm
643000482,46.772668,7.6309935,Agrola
654507963,46.753959,9.1165265,Agrola
655163017,47.4555183,9.0489562,Migrol Service Wil SG
658588675,47.0421896,7.3870043,Avia
658952529,47.4559946,7.6037836,Eni
660450821,46.7478966,7.6395318,Tankstelle Holzmätteli
661493618,46.9591371,10.3970489,Shell
662858693,47.2296259,7.5677965,Avia
663151349,46.8172772,7.214783,Garage Gilbert Neuhaus AG / Miniprix
663205656,46.757737,7.2090736,Garage E. & H. Kolly
663608023,47.2009587,7.5734973,Bögli
666391084,47.1376627,8.5800107,BP
667277732,47.364319,7.9292335,Agrola
668845217,47.5695474,8.9180358,AVIA Shop Tankstelle
679057788,47.1766437,8.1091655,SOCAR
686939916,45.8503364,8.9820098,Easy Stop
686939964,46.5697433,9.3685645,Shell
687534736,47.4641994,8.3302925,Ruedi Rüssel
690532466,47.1339104,8.0467163,Garage Pfenniger AG
691356568,47.2311911,7.5710637,Mini Prix
694572836,46.5334622,6.6302352,Gaz naturel
696657243,46.798762,7.1307287,Avia
698881444,47.4835208,8.2857586,Voegtlin-Meyer
698881600,47.4824992,8.2788868,Shell Kappelerhof
701550963,46.4638514,9.1873904,SOCAR
701652156,45.850212,8.9849412,Easy Stop
701671099,47.156677,7.2725619,Tamoil
701735044,47.299064,9.1752585,Tankstelle Garage Keller AG
704348032,46.9439545,7.4207435,BP
705005322,47.5149857,8.9362629,Agrola
713981283,46.8381654,8.1870503,bike atelier
726850050,47.3551895,8.3499524,Coop
727434779,46.8000342,6.629,Mini Prix
732108642,46.8845236,10.4641899,BP
734869663,46.9469734,7.4182628,Küng AG
740484383,47.5398447,7.5942075,Ruedi Rüssel
745283443,46.8101637,7.166158,Mini Prix
745958693,47.4428573,9.3951879,BP Service Bruggwald
746707045,46.1085655,7.090417,Adam Touring
746707068,46.1074225,7.0878982,Garage du Simplon
746707079,46.1094497,7.0914483,Garage du Nord
746707088,46.1060756,7.0853825,Migrolino
746737260,47.334353,9.4039821,BP
747389413,47.3107279,9.4354068,Agrola
757365679,47.0541578,8.2549125,Aperto
758437538,47.5714501,8.2482578,Voegtlin-Meyer
759831992,47.4721147,8.9238617,Avia
761492246,47.5589206,7.6012516,Wettstein Garage
765330262,47.3125048,8.0470293,Suhre Garage AG
767892667,47.1654451,7.7960546,Agrola
769056366,46.8944924,7.1696969,Migrol
769788287,46.8732186,7.1254255,Carrosserie City - Dula
771144383,47.4541087,9.3998191,Migrol Service Wittenbach
771221358,47.0343431,8.2647634,Migrol Service Kriens
773554425,47.2670568,7.8352392,Coop Pronto
773905094,46.7007304,7.145666,Miniprix
775345890,47.3226321,8.5781558,BP Garage Günthardt
775938665,47.3857365,8.4936574,BP Emil Frey Altstetten
776975625,47.2747939,8.8257725,Agrola
778541365,46.4313407,8.9659581,Avia
783778702,47.4607862,8.2466031,Ruedi Rüssel
783958365,47.3148522,9.0839457,Agrola
785515374,46.1703869,9.0076643,Euro Service
795605999,47.302478,7.932476,Avia
800657455,47.1300151,8.7438499,Agip
805122639,46.1765197,8.8220392,Tamoil
805177092,46.1783379,8.8167142,Eni
805177111,46.167665,8.7785161,Eni
806387974,46.1636698,8.7738914,Tamoil
806388027,46.1643349,8.7739825,Eni
806655564,47.0172905,7.4549526,Garage D. Egli AG
810111212,46.206042,7.0072655,Horizonville
812858865,47.1433173,7.7929114,Agrola
814092498,46.9433124,7.2390927,Autogarage Hörhager AG
815705041,46.8945841,7.1789372,Miniprix
827610265,46.6974028,9.4422663,Coop
828145645,46.676566,6.6462576,Garage du Gros-de-Vaud
829492817,46.6896573,9.5619857,Migrol
834687489,46.8269841,6.4966911,Garage Stop
836844286,46.7871603,7.5380925,TAMOIL
836844290,46.8191539,7.3656794,Garage SAchoenentannen
836868794,46.8090795,7.4770885,Migrol
838967717,46.1342583,8.9989364,BEBECO
848484172,46.6924705,6.7070341,Avia
849037882,46.3499272,8.7886078,Commune de Sonogno
850468864,46.8096586,9.3827413,Garage P. Balzer
856769114,47.281235,8.4006173,Tankdiscount Ottenbach
858928210,47.1095207,8.6780989,Avia
860155609,46.306161,7.9607106,Coop
860423930,46.2965697,7.5504487,Coop
861343529,46.3022281,7.7076576,Jäger
861491599,46.3016187,7.6996831,Garage Enzian
861682957,47.2661329,8.2023775,Hergol Tankstellen AG
865160661,47.4350159,9.4018411,Migrol Service Neudorf
867337856,47.3083457,8.1739419,Agrola
869106823,47.0491641,9.4287795,Pizol Garage
870702643,46.2273378,6.0783459,Shell
870717790,46.2232129,6.0686818,Station BP
872980408,47.328327,8.1142369,Garage B. Wicki
875365969,46.2283843,6.0731853,Garage Relais de la Meyrinoise SA (Tamoil)
876403608,47.3171831,8.4168683,Avia
884923624,46.6607904,7.7272191,Garage Schulthess
886099076,46.3112002,7.6369072,Ruedi Rüssel
886099078,46.3110211,7.6337369,Migrol
894602267,46.2201143,6.1404497,Shell
897687154,47.3506664,7.4235646,Miniprix
898008622,46.6999205,7.8886714,Migrol
898008646,46.6980921,7.8812511,Ruedi Russel
898008652,46.6777432,7.8509999,Oeltrans
898008653,46.6799973,7.8511245,Agrola
899266012,46.7058793,7.9033447,Flamol
899266029,46.7036954,7.8983186,Oeltrans
901272805,46.7884591,8.1601612,Garage Gasser
910361190,47.0657504,6.6960697,Tamoil
913688031,46.205707,6.0990123,Tamoil
917123981,47.447321,8.2933501,Tankbar
918635498,46.4710904,6.8404792,BP
919443818,47.234572,7.7744394,Agrola
919564460,47.5945616,9.3141348,Autohaus Semir AG
925664468,46.8259466,7.3014958,Tankstelle Agrola
926471432,46.6246116,7.6901237,Migrol
926942122,47.4049521,8.5497781,Avia Dörflistrasse
927182599,47.4482319,8.9264482,Agrola
928545561,46.7951961,9.8245072,Migrol
930927146,47.1043555,6.835598,Mini Prix
935831690,47.4123963,8.5239096,Wehntaler Tankstelle
935832538,47.4113884,8.5268978,Avia Shop Regensberg
936772253,46.9234431,7.4582926,Migrol Service Wabern
945468337,46.737169,7.6272136,Stadiongarage
948341016,47.0431779,7.5033202,Agrola
955760539,47.2809398,7.9339436,Avia
956494164,47.2501062,8.7798785,Avia
965894250,47.3739415,8.0829356,bp Service
969251925,46.1896677,6.1317637,Shell
970843021,47.404558,8.5563801,Ruedi Rüssel
988280430,47.1899979,7.5531406,SOCAR Biberist
989929488,46.7721039,7.1603525,Agrola
997576722,47.2586647,6.9998013,Tamoil
1002580653,46.675953,8.7555654,Garascha Plauns
1004434937,47.0916044,7.5869795,Gustoil
1005690808,47.0434102,7.0967427,Avia
1005732659,46.9960461,7.107865,Landi
1005732665,47.0043418,7.114943,Garage Lüthi Ins
1008899786,47.0867916,7.5265435,Garage Rohrbach
1008973306,46.4707022,7.126161,Jubin
1010474279,47.3664363,7.3587624,Shell
1019965180,47.1138754,7.3009621,Migrol
1033691216,47.4088158,9.2518229,BP
1043570734,46.3611856,6.8782349,Avia
1066532173,47.5457396,8.9648204,Agrola
1066847210,47.3940226,9.5886495,Agrola
1069757909,46.9775962,7.4211774,Ruedi Rüssel
1070743614,47.3419652,7.8642478,Coop Tankstelle
1077316888,47.1333266,8.1413176,Avia
1077316889,47.1364244,8.1359572,Agrola
1077327023,47.1391843,8.1291191,Auto Fit
1083458072,47.0513439,8.299039,BP
1088750855,46.9704417,9.5618015,Grisoil-Benzin
1103883235,47.349985,8.2704217,FS Tankstelle Hübscher
1106092642,47.454452,8.287749,OIL!
1115940413,47.2684858,8.587297,Horgengarage
1128241825,46.9288091,7.3823088,Shell
1135616539,46.2269845,7.3376598,Tamoil
1143341483,46.229762,7.8644199,Tamoil
1143341486,46.2470882,7.8767958,Shell
1143341489,46.2298288,7.8705632,BP
1148678388,46.9701528,8.4676767,Eni
1152714854,46.7754523,9.2009215,Shell
1154421295,47.0679635,8.3154803,Coop Tankstelle
1158234087,47.0446297,8.3670056,AVIA Tankstelle
1167954322,45.8729659,8.9783802,Piccadilly
1168557364,47.4835627,8.1930644,Midland
1168557417,47.4833911,8.1921644,coop
1169057575,46.515254,8.667533,Eni
1171138347,47.0621935,8.2651449,Emil Frey AG
1191627169,46.755779,7.6251953,Spymag AG
1191627198,46.7542937,7.6274399,Shell
1207862061,46.4746901,6.4184337,station-service Migrolino
1210603014,47.1899892,8.6459715,Avia
1228109353,47.511197,7.724108,Etzelpark Füllinsdorf Benzin
1237726505,47.6447869,9.1862367,Tamoil
1238265211,47.2098999,7.0020136,Station du College
1240203805,46.8868465,7.0489224,Agrola
1244934614,47.4573832,8.9452808,Tankstelle Svabic
1247814011,46.3341628,9.5367655,Agip
1258330247,47.4071384,8.5473271,Discount-Tankstelle
1262550302,47.1829632,7.8778521,Ruedi Rüssel
1263586134,46.8325723,9.4451452,Ruedi Rüssel
1277433290,46.6662459,6.7998149,BP
1279673078,46.5297566,6.6358813,Mini prix
1283828394,46.5193536,6.6403487,Shell
1298160841,47.4948396,7.0164145,Station-Shop de la Côte
1298163196,47.4994252,7.0104142,Station La Fleur de Lys
1298163197,47.4982443,7.016218,Shell
1298163198,47.5019803,7.0129227,Station Paupe
1299328892,46.9019808,8.6231533,Bootstankstelle
1301131017,47.0495447,8.2644204,Hergol
1305217876,47.5835169,9.0568047,BP
1322341728,47.0265743,7.4438977,Coop
1323307013,47.1847601,8.0169191,Ruedi Rüssel
1325892702,46.2961047,6.1671598,Shell
1332641756,47.1900752,8.7367004,BP
1334897806,47.3454159,8.3510271,Senten
1335581379,47.0924554,8.2531853,Landi Tankstelle
1337143769,47.5580502,7.5741773,Shell
1337181865,47.0401467,7.3040725,Agip
1337471849,47.2168937,7.7711546,Ruedi Rüssel
1338801659,47.3504527,7.9532825,Migrol Tankstelle AMAG Dulliken
1339704369,47.0413744,9.4324102,Migrol Service Pizolpark
1341487957,47.2473126,8.6387565,Ruedi Rüssel
1341959530,45.9316651,8.9742837,Piccadilly
1342602152,46.8889832,7.5228087,Tamoil
1348212458,47.5678724,8.5233914,Tamoil
1349293145,47.0407391,8.3098074,ewl gaz energie
1350936246,47.4046286,8.7197006,Autohaus Illnau AG
1358046462,46.8198031,7.584987,Agrola
1360531820,47.0320213,7.0565167,Miniprix
1361319683,47.3678087,8.564167,Shell Bergstrasse (Automat)
1361319687,47.367931,8.5644227,Shell Bergstrasse (Shop)
1363040120,47.3625248,8.5480473,Migrol Tankstelle AMAG Utoquai
1363477917,47.4500225,8.1452091,Voegtlin-Meyer
1366349899,47.3624756,8.5681877,BP Witikonerstrasse
1366703127,47.4065994,8.7241822,Agrola
1371793708,46.698223,7.737534,Ruedi Rüssel
1374825644,47.1927088,8.7186248,Power Station Niederberger
1375339404,47.4252829,8.7441568,Tankstelle Nüssli
1377911375,47.5254889,8.2155504,Agrola
1384275456,46.7718823,7.6314925,Oeltrans
1384810775,47.1099523,8.4506807,"AVIA, Tankstelle"
1389429452,47.3405539,9.530869,Tankstelle Motzer
1392528909,46.0888384,7.5091335,Garage des Alpes
1395851528,46.7575908,6.9327072,Garage Christian Favre
1406942836,46.6340621,10.4574614,BP
1413185616,46.5170341,6.6072755,Shell
1419909556,46.8120696,7.1368574,Migrol
1422954797,47.5300292,7.6409066,Ruedi Rüssel
1422954808,47.5268723,7.65582,Migrol Service Muttenz
1422954837,47.5286883,7.6457906,Ruedi Rüssel Muttenz
1423830742,46.9324304,7.1278439,BP
1424941577,46.8119989,7.1355427,MINIPRIX
1426129681,47.5250327,7.6839663,Coop Tankstelle
1427978267,47.3450234,7.9069744,Ruedi Rüssel
1428094165,47.3502334,7.8911643,SOCAR Olten
1428113830,47.3309439,7.8374242,Avia
1428115688,47.330653,7.8364586,Agip
1435448154,47.6671495,9.0887564,SOCAR Ermatingen
1435634107,47.6597537,9.1223471,Avia
1436158482,47.6502071,9.1720898,Coop Tankstelle
1436591403,46.3552043,8.9709633,Eni
1437292725,46.7687346,7.5835468,Agrola
1437292813,46.77236,7.5773896,F. Augsburger
1437637798,47.645075,9.2117789,AVIA / Lang Energie AG
1447469399,46.1948349,6.1527342,Avia
1453005631,46.3116172,7.9799598,Shell
1461962575,46.6848323,7.6681306,Coop
1468247342,46.5204821,6.5106981,Simond
1477153788,46.1898428,6.1993774,BP
1477740586,46.9738609,7.483221,Coop
1477747675,47.1628689,8.1041845,Agrola
1478083069,46.6669862,6.3296397,Tamoil
1479486531,46.4400609,8.8418979,Avia
1485039698,47.0825834,8.2724368,Sprengi
1487761567,47.3943519,8.5297022,Migrol Tankstelle Wipkingen
1488703647,47.4063348,8.5836156,Migrol Service Schwamendingen
1488717329,47.4073726,8.5865182,Avia Ueberlandstrasse
1488738142,47.4062266,8.5831505,Migrol Tankstelle Schwamendingen
1492328346,47.402714,8.577361,Tamoil
1492836194,47.4622166,9.3942782,P&P Autotreff AG
1492865481,47.3956372,8.6061099,Shell Sonnental
1493474970,47.0723902,8.2793174,Migrol Service Emmenbrücke
1493475034,47.0712331,8.2810579,Agrola
1500284210,47.3061018,8.1153725,Faes
1500284220,47.3036534,8.114051,Bolliger
1511296723,46.8255425,6.9244486,Coop
1513964564,47.361231,8.5224826,Eni Manessestrasse
1515923598,47.3177695,8.1839806,Migrol Tankstelle Boniswil
1519488377,46.8244089,6.9282194,Eni
1525269396,47.391139,8.5267589,Discount-Tankstelle
1528037438,47.4039392,8.56718,Ruedi Rüssel
1531318125,47.189242,8.8552324,Ruedi Rüssel
1535109278,46.4122618,6.1898628,Tamoil
1565389568,47.1451865,8.0148515,Wuest Garage
1565389577,47.1531563,8.0267177,Agrola
1569833060,46.222716,6.1302175,Tamoil
1569835418,46.2237738,6.131151,Parc-de-Budé
1571348229,47.5594198,8.0576316,OIL!
1571348249,47.5598484,8.0593662,SOCAR
1575815197,46.9932116,8.5214595,Tankstelle Agrola Gersau
1576589330,46.3839539,6.2212319,Esso
1580502878,47.346225,8.6018688,Shell Zollikerberg
1580768457,46.6784756,7.8508793,Oeltrans
1580983584,47.137517,7.3815278,AVIA
1581546464,46.6796135,7.8559151,Avia
1599440400,47.5529398,7.7971871,Ruedi Rüssel
1606216660,47.5316738,7.9885828,Agrola
1618141590,47.5334532,7.6046921,Coop Tankstelle
1626641320,46.5527078,6.7772004,Avia
1626642255,46.5526207,6.777446,Avia
1630419348,47.2668117,7.6969458,Gabi
1631244460,46.9546105,7.4786427,EcoStop
1631257567,47.3798416,7.949218,Migrol Tankstelle Lostorf
1639422734,46.0148105,9.0189266,Tamoil
1640520321,46.4900334,7.5660229,Garage Inniger
1652920891,46.922124,6.8081137,Agrola
1656300744,46.3020251,8.9922663,Eni
1661217443,46.8994411,8.2466074,BP
1662051350,46.585021,7.6489986,Shell
1666766811,47.5497616,9.3033076,Ruedi's Tankstelle
1673091430,46.5910757,7.6507677,Boxenstop
1673270469,47.3278762,9.2215753,Agrola
1674661390,47.5421359,7.5776747,Coop Tankstelle
1685063933,47.171467,8.2864796,Shell
1685703885,47.5012058,9.4473563,Red Fox
1689325383,46.174992,8.8173694,Shell
1689402740,46.1790408,8.8696241,Eni
1696273321,47.3841541,8.3957628,Migrol Service Reppischhof
1701490048,47.1739324,9.4653225,BP
1702809007,46.4472372,6.1557601,Eni
1704406678,46.1845118,7.4367851,Jubin
1708066596,47.3873573,8.1698834,Avia
1708066637,47.3871138,8.1670366,BP
1713381442,47.1295677,9.0510747,Arial
1721705361,46.7187262,6.960739,Mini Prix
1723238711,46.9377757,7.3933651,Coop
1726210994,47.311382,8.393637,Stutz
1732449803,47.3832035,8.0869974,Migrol Service Buchs AG
1735141082,47.3734647,8.681685,Lenzlinger Tankstellen
1737759646,46.3431931,8.97596,Tamoil
1743982428,46.9311105,7.4298957,Avia
1753928832,46.2579833,6.94545,BP
1757030057,46.1537134,8.904614,Avia
1757030067,46.1524037,8.9623808,Socar
1757030068,46.1499639,8.9282216,Migrol
1759660491,47.195103,8.7249048,Biodiesel vom Zimmerberg
1768343014,47.5797861,8.612637,BP
1769240597,47.533994,9.3463656,Migrol Tankstelle Steinebrunn
1769277686,47.5340938,7.6289604,Coop Tankstelle
1773647684,46.5284646,6.3404328,BEBECO
1775233553,47.5143094,8.0148684,Avia
1781591093,47.1297597,7.5329681,Agrola Bätterkinden
1782050608,46.1567581,5.9899665,Shell
1786093958,47.1050139,9.0656161,Shell
1791294272,47.4289183,8.5591906,SOCAR Glattbrugg
1792415841,46.5155206,6.5069801,Chantier Naval Balmer Ravey
1798164480,46.9157023,7.5637186,Agrola
1799498563,46.1763688,9.0124592,Eni
1799498564,46.1840955,9.0126965,Shell
1799498565,46.1884487,8.9966359,Avia
1799563805,46.3756083,8.9176709,Avia
1799563820,46.3752387,8.9192486,Tamoil
1800052853,46.1928872,6.0170095,Avia
1800185501,46.1835229,8.9839066,Eni
1808635564,46.1362808,7.1155728,Eni
1808929549,47.373198,8.1440957,Avia
1808929562,47.3747566,8.1430026,Avia
1809757329,47.5278232,7.941497,Voegtlin-Meyer
1814601989,47.1729279,8.9589822,Migrol Tankstelle Buttikon
1816824536,47.1824852,8.4840529,Migrol Service Zug
1816824547,47.1825095,8.4843391,WWZ
1816824579,47.1915585,8.5228027,Avia
1817496220,47.4036418,8.0853579,Migrol Service Rohr
1817527603,47.1869418,8.4733743,Migrol Tankstelle AMAG Cham
1819439499,47.1921608,8.4882368,Landi
1826340597,47.2010669,7.5467772,Howald
1826381833,46.9117221,7.9327732,Migrol Service Escholzmatt
1827364426,46.9485531,8.0129183,AVIA
1828569947,46.6779564,7.8508688,Oeltrans
1829783287,47.1269593,7.9977969,Agrola
1835275007,47.4633657,9.5927576,Ruedi Rüssel
1835275018,47.464392,9.5919065,Spurt
1835326126,47.138397,9.0492936,Shell
1843138084,47.5777503,8.9746831,Garage Debrunner
1843378639,47.6950212,8.5830796,Migrol Tankstelle Beringen Industrie
1845304513,47.1876983,8.3973611,Agrola
1845461046,46.9549838,8.0189381,Ruedi Rüssel
1854831311,47.4176287,9.0464699,Avia
1856395645,47.7927487,8.6108011,Tannair GmbH
1856809564,46.4611742,6.3424132,Sirca
1856810715,46.4626765,6.3449643,Jaquillard
1869703878,47.0376643,8.161097,Nasa
1874196802,47.0513972,8.0682995,Agrola
1882056112,47.5300983,7.6054191,Avia
1882065880,47.5850184,7.5935859,Shell Baslertor
1884922207,46.9101298,7.6322776,Coop
1886547907,47.0379211,8.1610561,Nasa
1889486988,47.4736901,9.0602983,Tankstelle Sonne
1891089861,46.9003813,7.6331605,Socar
1896270896,47.3965165,8.6116995,Minoretti
1907628745,47.0567481,6.8999282,Migrol
1921976248,46.4398191,6.2483809,Eni
1923272905,46.7937204,7.1431039,Meuwli SA
1923314905,47.1804047,9.4470167,Kühnis
1924177999,47.4802114,8.4847451,Avia Niederhasli
1933343179,46.3834787,6.2167148,Tamoil
1933689564,46.871406,6.9359011,"Garage Combremont, Grandcour"
1936459890,46.1885148,6.1426674,Remo Arnoldi
1944924400,47.0822789,8.2650138,Riffig
1946091623,47.0508099,7.5483644,Agrola
1949179157,47.1845226,8.1075043,Avia
1949535717,46.8597501,7.4955206,Agrola
1953487290,46.7122543,9.4452742,Tanstelle Viamala Raststätte Thusis
1960477734,46.1657193,7.2092621,Station de Riddes
1960490981,46.1171208,8.7084061,Eni
1961638543,46.1161609,8.7074783,Stazione Aniceto
1962314078,47.4184749,9.4958775,Ebni-Garage
1975299928,46.1812888,6.8733314,Combustia
1975546345,47.5618331,8.9060671,Migrol Service Frauenfeld
1976789584,47.0830225,7.9557499,Migrol Tankstelle
1976898678,47.5460209,7.5837638,Migrol Tankstelle Gundeldingen
1976917024,47.5657309,7.573832,Avia
1977209660,46.2181263,6.1431184,AVIA
1979812153,45.841138,8.9617777,Eni
1981714666,47.3452668,8.1606575,Agrola Seon
1994208081,47.5011525,8.0091467,Agrola
1997878114,46.1908718,6.1203623,BP Petit Lancy
2002786093,46.9276784,7.4935799,Shell Muri
2011278133,47.2053435,7.5335325,Agrola
2020021665,47.0404345,8.1758077,Garage Seeberger
2025508669,46.7178555,7.7099806,Agrola
2030250496,47.4310576,8.5662085,Avia
2030813794,47.08163,8.2682206,Sprengi Garage
2031025592,47.4641945,8.9936157,Socar Sirnach
2037405840,47.5350173,7.5716334,Avia
2037405848,47.516749,7.5584937,Avia
2038180365,47.0457315,9.061261,Höhe
2038180380,47.0358484,9.0726161,Migrol
2044313034,47.1546586,7.0145577,Mini Prix
2049498641,47.536654,7.6066804,BP
2063703190,46.8105604,7.1777813,Coop
2069906938,46.8115578,7.1730597,Le Garage
2069997188,47.0706878,6.7066653,Station de la Crête
2074771409,47.5481192,9.3718004,Migrol Service Egnach
2074771410,47.548936,9.3717356,Ruedi Rüssel
2080030876,47.3103623,8.556814,Garage Küry GmbH
2082083945,47.0127716,7.0082828,Migrol
2082727575,47.4574017,7.6056559,Avia
2086964148,47.3009386,8.8364358,Agrola
2087629938,47.4056205,7.6899813,Ruedi Rüssel
2088172705,46.4615715,6.8570441,Station service
2100516385,47.6693995,8.6377475,Landgarage
2104399786,47.4315388,7.7056924,Avia
2109027261,47.0965469,9.3530771,Agrola
2123681572,46.9328673,7.5065369,BP
2126510762,47.2169773,7.7537263,Landi
2140022268,46.8867073,8.2107708,Avia
2142689748,46.6561874,6.5102238,Tamoil
2147659038,47.0344057,7.6309276,Coop
2166192091,46.9253424,7.5736358,Migrol
2172529283,47.0118226,7.6590283,Agrola
2173294557,47.0084458,7.1564357,autofit garage waelti
2183596691,47.1681801,8.2876628,Agrola
2184457034,47.2833097,7.9453164,Hofer & Co
2185610249,47.1760678,8.9077084,Migrol Service Siebnen
2186282617,47.2346403,8.4277609,Agrola Dorfstrasse
2193310580,47.2768553,7.3728857,Gobat
2194325506,47.2824578,7.3815906,Shell
2194509641,47.4000687,8.4116786,Tamoil
2194955245,47.2822364,7.3807601,ACM AutoCentre
2214821219,47.3684503,8.4967351,SOCAR Triemli
2232036984,46.9274953,7.3798608,Avia
2233923218,46.8765861,7.0326379,Coop
2251949258,46.6051635,9.4273614,Avia
2262032671,46.9007649,7.4013264,SOCAR
2267251447,46.2066493,6.1220684,Tamoil
2276702417,47.5712202,7.5692209,Shell Flughafenstrasse
2279775523,47.4052121,8.2201673,OIL!
2287987550,47.4672556,7.8004766,BP
2290342093,47.5203202,8.5472046,Agrola
2290610240,47.4962061,8.2674926,SOCAR Untersiggenthal
2290630916,47.3029914,8.3120463,Avia
2293738942,46.249419,7.3478754,Garage Yvon Dubuis
2294128749,47.3625325,7.3601035,Agrola
2296075721,46.790839,6.5278934,Garage du Clos
2298168567,46.2323759,6.1231165,Mini Prix
2301905696,46.2361833,6.1241342,BP
2306589625,46.2361036,6.1236391,BP
2310133319,47.0325583,7.6325861,Migrol Service Oberburg
2319855981,46.225487,6.1062793,Tamoil
2320614539,47.3611129,8.3687981,Touring-Garage & Carrosserie Stefan Baur AG
2321097739,47.4121896,8.1593713,Rüebliland
2321655387,47.61111,8.7262668,Agrola
2322343951,46.7448381,8.1958192,Oeltrans
2330954312,46.7403947,7.5993878,Tankstelle Bierigut
2342240617,47.3069234,9.0871791,Coop Tankstelle Wattwil
2342240672,47.3288979,9.0847543,BP
2342241222,47.3645608,9.0411115,BP
2344276924,46.7949419,7.4030135,AVIA
2344545324,47.2134464,8.2659019,Tankstelle
2344551128,47.222165,8.2532433,Agrola TopShop
2353769640,47.0556458,8.0810235,Discount-Tankstelle
2354711911,46.3078224,7.9683586,Tank-Treff
2357532576,47.4623067,8.9537317,Migrol Tankstelle Eschlikon TG
2367298772,46.6224184,9.182558,Tankstelle
2369236534,47.4365425,7.0116965,Garage Vallat Sàrl
2371367682,47.3322385,7.7508902,Tschopp
2376309412,47.563447,9.0478265,Ruedi Rüssel
2377108626,46.7522377,7.0309206,Mini Prix Garage Mörel
2383717270,46.4790008,8.7960072,Avia
2385204503,46.8358843,9.2943607,Ruedi Rüssel
2386691625,46.148803,8.8631504,Tamoil
2387341805,47.2118886,7.7842292,Schulhausgarage
2388339711,46.4770761,6.3970477,Agip
2389917394,46.7203688,7.0918108,Von Oetinger Patrick
2392081646,47.5486386,7.5572631,BP
2392657652,47.5513783,7.624196,Ruedi Rüssel
2392657658,47.5498243,7.6255636,Migrol Service Birsfelden
2400839575,46.8850388,9.8739029,Centralgarage
2400839628,46.9666479,9.694265,Avia
2400839640,46.9701525,9.6837817,Coop Tankstelle
2402540485,46.7214909,6.5388581,Coop Pronto
2405452663,47.1341192,7.2417642,Garage Urania
2407228024,46.9842893,8.4113637,Tamoil
2416781612,46.1549808,8.7717833,Piccadilly
2417622006,46.4629113,7.1010222,Station les Moulins
2418251995,46.9471699,7.3896493,Avia
2418870049,46.2808585,7.5106127,Coop Pronto
2430389779,47.1872572,7.8484635,Agrola Melchnau
2432632982,47.1724793,8.0922082,BP
2432632983,47.151273,8.1664137,Avia
2433663082,46.4622041,6.0757097,BP
2446828004,46.8137326,6.9527219,Jubin
2450501370,47.271313,8.3433422,Coop Pronto
2451962794,47.1985893,7.7866283,Gustoil
2463639260,47.6096267,8.5340093,Avia Wesag Auto AG
2463639822,47.6110084,8.5396384,Tamoil Garage Sigrist
2466323687,47.3600319,8.0524957,Voegtlin-Meyer
2468529775,47.0474986,7.1504118,Seetankstelle Lüscherz
2469122824,47.4721676,7.7583082,Blitz-Garage AG
2469124932,47.4705075,7.7626736,ecostop
2471120934,47.1359348,8.6087761,Tamoil
2477003262,47.0802212,7.749732,Touring Garage
2477003268,47.1141394,7.7797154,midland
2477003483,47.1671418,7.7964588,Avia
2479965161,47.474544,9.5802881,Coop
2480248159,46.9861131,8.4141384,Agrola
2498353735,47.1151263,7.125019,Agip
2511874387,47.2242471,7.8937055,Shell
2511896139,47.1757596,8.1027455,Agrola
2513636432,47.3921617,8.67484,AGROLA
2522474456,47.4570056,7.8070957,Avia
2522474461,47.465747,7.8025587,Avia
2549317450,47.5223356,9.4000416,Agrola
2563389409,47.4174703,9.1696618,Coop Tankstelle
2571051411,47.083383,8.1244828,Agrola
2576639883,47.4901182,7.6087693,Coop Tankstelle
2576641031,46.9195617,9.5627521,Coop Tankstelle
2576644569,47.3274477,8.5299541,Coop
2576974605,47.4768015,9.5775038,BP
2581670449,47.1765044,9.4670379,MIGROL / AMAG Retail Buchs
2589391996,47.2384314,7.2503148,Agrola
2594087411,47.552469,8.873065,AVIA
2594087412,47.5611502,8.8891118,SOCAR Frauenfeld
2594087414,47.56378,8.8752947,BP
2600727479,47.4117642,9.0690072,Migrol Tankstelle Bazenheid
2611932131,47.2384952,8.7497668,AVIA
2613273097,47.4141929,8.1649918,Ruedi Rüssel
2613273100,47.3985241,8.1787604,Shell
2613649986,47.1546544,8.3160246,Agrola Ballwil
2617018701,47.1277093,7.9069185,Agrola
2619423727,47.4597676,9.384802,Agrola
2619516259,46.3979238,7.768477,Ruedi Rüssel
2629123779,47.2687837,7.6870648,Migrol
2630944453,47.291096,8.1940206,Garage Steiner
2633729038,47.516266,8.6799636,Coop Tankstelle
2633729039,47.5149155,8.6823507,Avia
2637205219,46.3142634,6.9409162,Migrol
2638832219,47.5136018,9.4381216,Bootstankstelle
2639107872,47.5192521,9.4242988,BP
2643475964,47.3597415,8.0550095,Avia
2647325839,47.2389462,7.6630512,BEBECO Wangen a A
2648339595,46.9451396,7.4730558,Avia
2674580997,47.4683784,9.3455004,Agrola
2694195855,47.219976,8.155417,Avia
2696218096,47.4846521,9.5510992,Avia Tankstelle
2697748656,47.3881064,8.5245108,Rigoni & Co
2702363178,46.6254513,8.0246383,Ruedi Rüssel
2703041969,47.0923913,9.3435543,Ruedi Rüssel
2705742343,47.4477209,8.3295104,Rudi Rüssel
2715681249,47.4695439,9.5875922,Freie Tankstelle Rheineck
2720687666,47.2397471,8.733336,Agrola
2722873137,47.3690097,7.3576492,Power Shop
2725280247,47.5214538,8.6575457,Agrola
2727215234,46.8238141,7.0994848,Coop
2741686844,47.39498,8.4870209,Avia Bernerstrasse Nord
2742294821,47.4180878,7.243632,Full automatic (CB and cash)
2765456786,47.3630888,7.3542521,Jubin
2765456793,47.3653835,7.3462032,Paupe Station
2770619414,47.5695246,8.2567835,Ruedi Rüssel
2770646240,47.5771617,8.2268849,Meier
2770662276,47.5876066,8.1489149,Mobil-Shop
2772125416,47.059643,7.6129765,Ruedi Rüssel
2775832578,47.1846811,8.1120393,Coop
2788676807,47.5263292,8.9227894,Coop Tankstelle
2789398878,47.265454,8.3009845,100LL - AVGAS
2799282091,45.8638242,8.9402414,Piccadilly
2800588923,47.3560414,8.5536233,Avia Dufourstrasse
2805987100,47.0767143,7.6720923,Garage H. Widmer
2818759393,47.5215972,8.9306009,BP
2843821734,46.5406689,6.7033088,Migrol
2878451891,47.5163995,7.5600718,Ruedi Rüssel
2888195234,47.6374683,8.974571,Migrol Tankstelle Hörhausen
2889088814,47.6448,8.9134642,Tank & Trank GmbH
2892492106,46.8679658,6.4904313,Automate
2898503502,46.3011973,7.5614477,Station Garage Montani SA
2909134584,47.0299685,7.7429911,Midland
2917008797,46.1105221,7.0764618,Coop Pronto
2938775995,47.0333005,7.6877953,Agrola
2945900336,47.4137752,9.6307567,Migrol / AMAG Retail Heerbrugg
2949154839,46.8733744,7.4019018,Agrola
2953816992,47.3392782,8.0260666,Automat
2964066018,47.3718779,9.1956025,Agrola
2965051132,47.0352711,7.5376479,Ruedi Rüssel
2969139664,46.2142064,7.2584959,Tamoil
2969139675,46.2815727,7.5112402,Migrol
2971729334,47.1648716,8.3000547,Tamoil
2989553634,47.4151459,8.3991162,Avia
2998400214,47.2055978,8.7453409,AVIA
2998617955,47.2017141,8.7958266,Etzelpark Benzin
3007661969,47.0467392,9.421388,Agrola Tankstelle
3013065716,46.1670288,8.7897479,Socar
3021904258,46.5131862,6.5012654,Tamoil Station 4043
3028802264,46.4726947,9.5126597,AVIA
3030232000,45.8396279,9.0195879,BP
3030586928,45.8402328,9.0188138,Tamoil
3030689545,45.8435063,9.0375533,Eni
3033193237,47.1043511,8.2007906,Avia
3041821374,45.8577548,8.9853643,Piccadilly
3056266301,47.2049041,8.70827,Shell
3071458539,46.1136162,8.9313772,Tamoil
3076893967,47.1066927,8.3810382,Ruedi Rüssel
3086649249,47.4061725,8.471176,Ruedi Rüssel
3096177968,47.1969578,8.5294199,AGROLA Tankstelle Baar
3121224677,47.3967811,8.4414569,Shell
3123715104,46.271443,6.9454664,Tamoil
3123717295,46.2079348,7.2540523,Station d'Ardon
3135208633,47.4130697,8.4149802,Migrol Tankstelle Fahrweid
3166577286,47.5295277,9.1931287,Agrola
3175013666,45.8621342,8.9730729,Avia
3196705172,47.0701944,8.1954532,Rotbach Garage
3197502313,46.0386168,8.9461407,Garage Castelli e Perucchi
3203084549,47.0241267,8.4589198,Ruedi Rüssel
3206147458,47.6666581,8.4363179,Migrol Service Trasadingen
3224540989,47.1230483,9.4878351,Riet Garage Tankstelle
3238083467,47.5614049,7.5738336,Pneu-Haus Spalenring-Service
3240926807,46.9018316,7.3556673,AGROLA
3244693565,47.1642471,7.5263903,Lagerhaus Lohn
3244693566,47.2101459,7.5629692,Ruedi Rüssel Garage Peter Weber
3266767364,45.8355497,9.0138909,Piccadilly
3280639461,47.0000472,7.4161082,Agrola
3284697002,46.8898767,7.3170971,Coop
3287567839,46.5415953,6.6332601,bp
3293439029,47.4503419,8.5970286,Coop Tankstelle Kloten
3323077484,45.8575136,8.986759,Eni
3323135069,45.8438434,9.0378915,BP
3323135070,45.8436404,9.0172178,Migrol
3323135073,45.8426201,9.0374871,Eni City
3323135074,45.8662635,8.9771441,Eni
3323135077,45.8409031,8.9614102,Piccadilly
3323135078,45.8410416,8.960621,Piccadilly
3323135079,45.8411714,9.0157091,Piccadilly
3323135080,45.8414541,9.0157391,Piccadilly
3323135082,45.8432457,9.0372925,Piccadilly
3323135083,45.8550302,8.966134,Piccadilly
3323135085,45.8427127,9.0371417,Socar
3323135089,45.8447599,8.9270221,Piccadilly
3323252277,45.8402433,9.0184435,Stazione di servizio 4S
3338200230,47.3342885,8.3079251,Avia
3338569750,45.8418752,8.9153588,Spirit Shop
3338569753,45.8479453,8.935836,Tamoil
3346518654,45.8679052,8.9777729,Piccadilly
3346541546,45.8428615,8.9742455,Zanini
3357984510,46.9950945,7.1502732,Gebr. Witschi Moos-Garage AG
3358399930,47.4067224,8.5382677,BP Allenmoos
3358815725,47.3735229,9.4161754,Migrol
3358829209,47.3255258,9.5680812,Migrol
3358829214,47.3758306,9.5447467,Red Fox
3358834640,47.4190579,9.2347824,Migrol Service Gossau SG
3358844941,47.3571454,8.7055232,Migrol Tankstelle AMAG Uster
3358844942,47.4016204,8.610322,Migrol Tankstelle AMAG Dübendorf
3358847506,47.4394579,9.0558872,Shell
3358847509,47.4386388,9.0566161,Coop
3358848067,47.5447515,9.2727646,Migrol Service Amriswil
3367972858,46.8979056,6.7810964,Miniprix Station Service
3373195693,47.4068433,8.4116243,Shell Limmatbrücke
3376582843,47.6417797,9.1962333,Migrol Service Seepark
3382900796,47.4203884,8.3694709,Ruedi Rüssel
3384690532,46.5978281,9.5963657,Socar
3385874251,47.3594959,8.4532841,Coop Tankstelle Birmensdorf
3392227810,46.7700398,7.0690975,BP
3397616183,47.2662108,8.3479029,Migrol Tankstelle Muri AG
3416564162,45.8640177,8.9417011,Piccadilly
3424601911,47.1848922,8.2807209,Fischer AG Baldegg
3443513113,47.5352264,7.6073525,Agrola
3465183252,47.1268041,7.2450284,Mini Prix
3499725468,47.2261638,9.1991044,Central Garage
3517072075,46.8711039,7.1257447,Prof-In
3532674147,47.3003825,8.3123437,Agrola
3546174756,46.9452836,8.0075923,Coop
3553554148,46.5258567,6.6339526,Tamoil
3556535498,46.1137774,8.7060083,BP
3571196998,46.1696811,8.7836183,Eni stazione servizio
3576197245,45.9139409,8.9843768,Eni
3577237919,45.9135622,8.9172805,IP
3577237924,45.9144236,8.9190734,Piccadilly
3578306158,47.084336,8.2725736,Coop
3578360626,47.0740702,8.2909467,Coop
3590384048,46.5391256,6.5974431,Socar
3599872150,47.0087003,8.6579946,Migrol Tankstelle
3618403643,47.0704761,9.4780441,Agrola
3619938082,46.2482565,6.9549637,Station service Tamoil
3619958668,46.2052823,6.8929967,La Mascotte
3620863237,47.375256,8.490236,Garage Resegatti
3640295271,47.2790722,7.9515026,Avia
3640398500,46.1644166,8.7680468,BP
3646443415,47.4047294,8.052012,Tankstelle Rombach
3654662924,47.209926,9.4898036,Shell
3655247409,47.481454,9.0332089,Grenzgarage
3660847528,47.2165237,8.5762619,Shell Sihlbrugg
3664846103,47.1417288,7.9749877,Ruedi Rüssel
3666276313,47.4811385,8.4652196,Migrol Service Ruchwiesen
3667591177,47.4046542,8.0944537,Merbag
3670745823,47.333647,7.2088268,Socar
3676208121,47.476254,8.5052021,SOCAR Oberglatt
3683619190,47.0355551,8.2968685,Migrol Tankstelle
3684333715,47.0552807,7.0666666,Socar
3688226672,47.3408891,7.3715339,Coop
3698907014,46.345982,8.9757278,Ecsa Energy
3698907015,46.450917,8.9404404,BP
3699868733,47.0004106,7.4616478,Coop
3700013891,47.567022,7.5635197,Avia
3701926343,46.1044037,8.7581083,Eni
3711872285,47.1306874,7.2530712,Discount Tankstelle
3725889088,45.8430061,8.9191912,Eni
3725889090,45.8414032,8.9149217,ecsa
3725889091,45.841708,8.9157971,europetroli
3725889092,45.8341837,9.0311093,Garage 64
3725889093,45.8430155,8.9198702,Vasa
3725892839,45.8459235,8.9316646,Ca' gialla
3725902823,45.8435698,8.9215346,IP
3725904325,45.8447716,8.9257926,Eni
3730065081,46.5266358,6.5270922,Agrola
3766123215,46.5408633,6.6208042,Tamoil
3773241559,47.3338554,8.0550713,Agrola
3779403542,46.018318,8.956508,Migrolino
3779580857,46.7505527,7.1689047,Tamoil
3779587759,46.6198732,7.1626533,Tamoil
3783431065,47.0513078,8.2726018,Avia Tankstelle
3790817939,47.3543871,8.9321595,Agrola
3796957666,47.4217428,8.4071653,Shell Geroldswil
3810110865,47.4294941,8.3913972,Migrol Tankstelle Oetwil a.d.L.
3822092434,47.0288228,8.296855,Tankstelle
3826204629,47.2805819,8.451352,Shell Affoltern a.A.
3826204630,47.2729064,8.4482579,Migrol Tankstelle Affoltern a.A.
3829948112,46.9381117,7.7955539,Tamoil
3831821557,47.2110701,7.5057963,Coop
3833323678,47.2114974,7.523622,Shell Solothurn
3843591892,46.861086,9.5341776,Avia
3843591893,46.8611721,9.5344075,Avia
3843591905,46.8727696,9.5344012,Socar
3843591906,46.8728691,9.5340214,Socar
3849962497,46.6588604,7.494838,Agrola
3856077382,47.3360236,8.5179148,Allmend Automobile
3857051059,46.7301181,8.1817953,Postgarage
3870732123,46.8153671,6.6523891,Tamoil
3872780480,47.2962794,9.0860928,Agrola
3873500007,46.2153036,6.1342581,Migrolino
3902614699,47.5617705,7.5643836,Migrol Tankstelle Wasgenring
3904951019,46.6882721,7.8887734,Ruedi Rüssel
3910778136,46.932743,7.5071924,Coop
3926865068,47.3967459,8.0688096,Ruedi Rüssel
3926865071,47.3948917,8.0582701,Voegtlin-Meyer
3957129672,47.3005723,9.0847671,bp
3986844671,47.319607,9.2868922,Landi
3991254087,47.5813087,8.3081177,Shell
4003557922,47.0438842,8.3045137,Avia
4040977956,46.0688334,7.7762638,BP
4058250841,46.9860824,6.8653204,Station Miniprix
4071715490,47.3512724,8.3712383,Agrola
4072287092,45.9888302,8.9537999,Eni
4077197252,47.4171988,8.5405286,Osterwalder Zürich
4081300238,46.7795936,9.5435631,Migrol
4088695339,47.0781452,7.2999215,BEBECO Lyss
4088701801,47.0410557,7.634502,BEBECO Burgdorf
4088712038,47.0109631,7.4665923,BEBECO
4088731206,47.3962823,8.2028678,BEBECO Othmarsingen
4088745689,47.1789603,8.1015907,BEBECO
4088761639,47.0330752,8.2923314,BEBECO
4088761840,47.0870919,8.2701518,BEBECO
4088879676,46.8311571,7.0545039,BEBECO
4088923696,47.2218008,8.675162,BEBECO
4088931569,46.8890175,8.2496659,BEBECO
4088976020,47.4752745,7.7226734,BEBECO
4088998702,47.4547453,7.0154203,BEBECO
4089001640,46.7105834,6.9183224,BEBECO
4089011903,46.6724459,6.8925657,BEBECO
4089017613,47.4286035,8.5179685,BEBECO
4089028880,47.3790129,8.5491137,BEBECO
4089035400,47.410457,8.5121281,BEBECO
4089041537,47.0061274,7.7247422,BEBECO
4089053385,47.3592877,8.4310994,BEBECO
4089066496,46.7797522,6.5943404,BEBECO
4089070715,46.828964,6.9398578,BEBECO
4089076989,46.81308,7.1563353,BEBECO
4089096059,46.957764,8.3875492,BEBECO
4090435103,47.1361941,7.2074953,BEBECO
4090464289,46.6711721,7.8576012,BEBECO
4090465707,46.4986055,7.4078524,BEBECO
4090470229,46.7387175,8.1191707,BEBECO
4090470990,46.7261946,8.1716384,BEBECO
4090478031,47.4878037,8.217243,BEBECO Brugg
4090484292,47.3571318,8.332197,BEBECO Bremgarten
4094946573,47.0934279,8.2994104,BEBECO
4094954025,46.3208597,6.9622099,BEBECO
4094994191,46.6525957,6.7838276,BEBECO
4095702167,46.3998815,6.2311316,BEBECO
4095710989,46.2101139,7.013926,BEBECO
4095716098,47.1407288,8.4405965,BEBECO
4095857965,47.0575262,9.4079682,BEBECO
4095864393,47.4183849,9.3593015,BEBECO
4095874621,47.1241147,9.3050401,BEBECO
4095885839,47.5682248,8.9007712,BEBECO
4095892754,47.5724671,8.8867021,BEBECO
4095901422,46.9647094,6.8629628,BEBECO
4095913148,47.3885449,9.2809607,BEBECO
4095924863,46.7743544,8.6678712,BEBECO
4095934505,46.9999025,9.0787184,BEBECO
4095957368,46.7648317,9.7985373,BEBECO
4096759731,46.8479262,9.5167617,BEBECO
4096807530,46.8472281,9.5004404,BEBECO
4096851895,46.5238156,9.1854647,BEBECO
4097127005,47.0356021,9.5266849,BEBECO
4097134493,46.7754965,9.1371467,BEBECO
4097236717,46.2012797,9.0186442,BEBECO
4097292416,46.1401609,8.9065231,BEBECO
4097298894,46.1628726,8.8785082,BEBECO
4097309412,46.3075473,7.7549164,BEBECO
4097315197,46.2266835,7.3762358,BEBECO
4097316481,46.2179373,7.3373866,BEBECO
4101219399,46.9019552,7.1505241,Vicianum Petrolium Sàrl
4105524510,47.461131,8.3143565,OIL!
4107323973,46.8215462,7.4428645,Agrola
4110508143,47.6420717,9.1892477,BP
4127859166,47.4870974,8.7551312,SOCAR Seen
4137864686,47.466528,9.2813855,Tankstelle AVIA
4138760987,46.8911188,7.5097596,Belwag
4139299712,46.8470135,9.5015512,Coop
4139299723,46.8499778,9.5048256,Socar
4144203889,46.8696216,7.5631266,Coop pronto
4153950189,47.3551672,8.0997754,Agrola
4163251498,47.2556433,9.1509051,BP
4169107328,46.5385258,6.73037,Garage des 3 Sapins
4169328572,47.4581207,9.3962732,Freie Tankstelle Wittenbach
4171946441,47.6114375,9.1696474,Avia
4178961089,46.3063458,7.7510364,Shell
4187685218,46.5473637,6.5621208,Tamoil
4195551923,47.3617632,7.3401454,Coop Pronto
4205766538,47.1201886,7.2421249,BP
4228845595,47.5002265,8.785714,Agrola
4233225589,47.4039492,9.3044453,Avia Osterwalder
4243869743,47.0153685,8.6438813,BP
4250994336,46.9432395,7.4009855,Avia
4251315310,47.2083109,8.1909083,Agrola
4251315312,47.2089307,8.1912076,Avia
4256047103,46.8098918,7.3780254,Gantrisch Garage Zwahlen
4280190277,47.2057036,9.4571065,Avia
4294130732,46.4848984,9.834767,BP
4301202055,46.4608287,6.8472047,Station Coop Vevey
4303177352,47.3319775,9.3953535,Migrol Service Appenzell
4303177353,47.3317158,9.3959932,Socar
4312489291,47.419519,9.364246,Avia
4322098887,47.4858278,8.4520921,Migrol Service Wehntalerstrasse
4339744894,46.7067056,9.4404844,Avia
4350047189,46.0220719,8.9370576,City - Eni
4350048126,46.02157,8.9369619,Piccadilly
4353163721,47.3791236,8.6803113,Migrol Tankstelle AMAG Volketswil
4358768290,46.2157793,6.101768,SOGEP - Société Genevoise des Pétroles
4370216210,46.1959776,8.138617,Eni
4374647078,47.2448419,8.1858003,Coop
4374661802,46.5191215,6.9056679,Agrola
4374734392,46.5244149,6.9053174,Tamoil
4375752130,47.3087143,7.0484518,XV
4379763130,47.4923059,8.7589991,Socar
4383628051,47.3371593,9.1307912,Agrola
4385865153,46.9055268,6.5743511,Grenacher SA
4392474889,47.5490727,9.221738,Agrola
4406030790,46.4649414,6.8398473,CICG Garage
4406033390,46.7086755,6.8461462,Bureau Cosvegas
4406082693,46.5553501,6.5703956,Emil Frey
4412050012,47.551192,7.5377885,Agrola
4424238921,47.4911259,8.4371213,Shell
4426163090,46.998009,8.6084888,Tamoil
4433552056,47.4138567,8.5493439,SOCAR
4435238292,47.4503807,8.5393004,Avia Hofwisenstrasse
4449629543,47.403513,8.6127931,Move
4468375295,46.3864049,6.9204807,Migrol
4469637892,47.4116797,9.335979,Shell Erlach
4471002503,47.4169136,9.2541153,Avia
4483819293,47.0366701,8.3025925,Ernst Hess
4498351089,47.0593682,8.3018416,Ruedi Rüssel
4532798983,46.5436903,7.0724314,Tamoil
4555025465,46.1089276,8.7651306,AVIA Ranzo
4561938178,47.5173549,8.1884482,Migrol Tankstelle Remigen
4568980639,47.4709809,8.1606104,villoel
4584155691,47.4293869,8.5590821,Coop Tankstelle Glattbrugg
4594228957,47.4237177,7.5018756,Socar
4595204262,46.6746504,7.6369464,Aral
4599603764,46.744842,9.5561855,Socar
4612312492,46.5614954,7.3752902,Landitankstelle und Shop
4617951385,46.7965239,9.8326748,AVIA
4626325925,47.1056553,8.3437463,Agrola
4639517344,47.0821572,7.2965446,BP
4640531856,47.5285996,7.9953799,Garage Frei
4690791242,46.7827711,9.6855547,AVIA Tankstelle
4697887291,47.5172815,8.594189,Coop Tankstelle
4697941146,47.5176581,8.5947525,Avia
4719655690,46.8086504,7.1512748,Station du jura
4730835508,47.2409632,8.9488352,AGROLA
4736427919,47.3504859,8.3361017,Avia
4740888851,47.3965492,8.4670441,Ruedi Rüssel
4745883536,46.2435957,6.9842312,Avia
4747343116,47.4614634,9.3805405,Coop Shop
4770994507,46.9284696,7.7346506,Tom's Tanke
4778868523,47.0625148,7.0890132,bp
4779034521,47.0587731,7.2311602,Avia
4794080208,46.8106348,9.2623507,Coray
4811194246,46.5150435,6.560649,BP
4820137498,47.3984726,8.6051007,SOCAR Bühlwiesen
4820137500,47.3353262,8.5408584,SOCAR Seebucht
4820601025,47.3522069,8.5585571,Shell Hornegg
4820601027,47.408064,8.6016378,Migrol Service Wallisellen
4820601028,47.361258,8.5478749,Migrol Tankstelle Seefeld
4820646304,47.4079849,8.5997702,Shell Glatt
4820646305,47.4032098,8.6075961,Shell Im Giessen
4820646306,47.4319133,8.5631012,Shell Glattbrugg
4828232529,47.4429478,8.4806515,Avia Watt
4833061686,47.3940505,8.4820011,J. H. Keller AG
4833061688,47.3770637,8.5114068,Avia Franz AG
4833061689,47.3662195,8.5336955,Avia Zur Palme
4833061690,47.3876457,8.5333362,Avia Wasserwerkstrasse
4847777858,47.3875329,8.4986948,Coop Tankstelle Letzipark
4858136837,47.1731529,8.9692838,bp-Tankstelle
4875461021,46.5486456,6.514494,Agrola
4908650221,46.1709413,7.186514,Garage Bertholet - Jubin Frères SA
4909119028,46.8727111,8.2419272,Migrol Tankstelle Sachseln
4911281322,46.864685,8.2311793,Freie Tankstelle
4931267322,47.483749,8.2977491,Erdgastankstelle Werkhof Regionalwerke AG Baden
4932308537,46.6029975,9.9599669,eni
4934580331,46.0050597,8.7933801,Eni
4935127595,46.7706091,7.50722,Agrola
4935133533,46.770397,7.5123819,Tamoil
4935627363,47.3623528,8.5271036,Nasa
4940994898,46.1388553,8.9077089,Eni
4959639284,46.8211037,6.5045037,Tamoil
4969901431,47.1965856,8.5298839,Avia
4970198222,47.190787,8.4766899,Migrol Service Steinhausen
4989129994,46.9549591,10.43507,BP
4990819212,47.2289888,8.832634,Eni
5000075190,46.4759271,7.2834741,Agrola
5019801223,47.4738153,8.0503423,Agrola
5026260721,47.4990212,7.6182434,BP
5032062867,47.6375618,8.6969995,Badi's Freie Tankstelle
5047593047,46.9681031,7.1899989,Schwandener AG
5057709536,46.5247953,6.6533221,Garage Pont de Chailly F. Mariotti
5060356108,46.3552605,6.9326019,Tamoil
5061305988,47.1231398,7.2792557,Marché Brügg
5084007910,47.4919178,8.5520732,Agrola
5105726212,47.454611,9.6368688,Coop Pronto
5118373197,47.1045554,8.3771996,Coop
5124348129,47.0730688,8.3273945,Avia
5124384532,47.2025695,7.572037,Migrol Tankstelle AMAG Zuchwil
5125381698,46.120968,8.9268556,Avia
5159526087,46.3167287,6.9687559,Jubin
5165148129,46.2243292,8.7432204,Stazione Di Servizio
5165572653,47.4642884,8.5265047,Spar Rümlang
5170933717,47.4347617,9.4020644,Coop Tankstelle
5192332363,47.2700306,8.8527951,BP
5211134027,46.2305386,10.1449413,Shell
5219377578,46.9166492,7.4665872,Avia
5242262577,47.358531,8.5319389,Eni Seestrasse
5245851786,47.0491266,9.0642478,Tamoil
5256182279,46.2430421,7.3429367,Station de Savièse
5256316188,47.0454165,9.068202,Eni
5258126478,47.5629444,8.4262064,BP
5281995076,47.1125082,9.2664622,bp
5286491814,47.4533993,9.0389859,Avia
5312558978,47.6938743,8.6050346,Coop Pronto
5321664526,47.2325737,9.1902955,Agrola
5336400778,47.5449108,9.374814,Avia
5336410697,47.5529036,9.3711112,Scall
5336973838,47.5654934,9.3659627,Coop Tankstelle
5338678441,47.6176153,9.2691216,Avia
5357761037,47.0610726,8.0735001,Coop
5370227721,47.4211995,7.0785787,jubin
5370227722,47.3368043,7.2491914,Tellis
5372787108,46.8517452,6.7192359,Kaeser Automobiles
5372787884,46.8380957,6.6880332,Café -Shop
5375798859,47.2760985,7.3667374,Gust'oil
5420548552,46.7243573,9.5580116,Socar
5434396547,47.3564181,7.982551,Shell Däniken
5438021361,46.3874123,6.9203578,Eni
5438021375,46.3852006,6.9211302,Tamoil
5458717846,47.4830697,7.6138161,BP
5464829035,47.4192262,8.414396,Coop Tankstelle
5488634095,47.1518335,9.0278777,Avia
5488634101,47.1528097,9.0258129,Migrol
5488634114,47.1002485,9.0731306,Agrola
5488634116,47.0943975,9.060726,Ruedi Rüssel
5488634117,47.0909385,9.0578768,Avia
5488634723,47.0131875,9.0817747,Eni
5488634726,47.0082627,9.0785385,Avia
5488634738,46.9910787,9.0634428,SOCAR Schwanden
5489790800,47.2831149,8.7614359,Ruedi Rüssel
5514327803,47.0708855,8.2759206,Discount Tankstelle
5514875835,47.4447009,8.4601767,Avia Pumpwerkstrasse
5514885103,47.4523897,8.4616405,Agrola Adlikon
5519650888,47.3363446,7.9074554,Coop
5528778830,47.1324931,7.2381026,Tankstelle
5531293140,46.1650435,8.7731889,Coop
5542504235,46.489014,9.8372749,Engadin Bus
5552618122,47.3344893,7.2782694,O’shop sàrl
5577256076,46.930127,9.0108101,Eni
5579134459,47.2629816,8.865991,BP
5582940854,46.9780398,7.4610002,Hess CNG Erdgastankstelle (Automat)
5628344433,47.3715763,8.9835812,Avia
5670394821,47.5550552,8.7689588,Agrola Tankstelle
5705934073,47.5522692,7.5661443,Ruedi Rüssel
5718417508,47.507531,7.5324157,Leu
5721083669,47.4535469,8.5785075,Avia Flughafenstrasse
5721083673,47.455013,8.5800231,BP Schaffhauserstrasse
5744118451,47.5256964,7.6918167,Avia
5746033457,47.4268094,8.3076343,Migrol Tankstelle Oberrohrdorf
5746437131,47.3986859,9.5847747,Marko's Freie Tankstelle
5747534240,47.2986729,7.9345154,BP
5761628590,46.9489005,7.3970599,SOCAR Bümpliz
5761634422,46.3178526,6.8966155,Shell
5776944239,47.0682099,7.315352,CarXpert
5778436755,47.4810831,8.2109143,Agrola
5801936256,46.4534712,6.8934691,Station Shop du Stade
5854422023,47.3926289,8.0660678,Socar
5873752911,47.4280156,9.6235326,Garage Kaufmann
5905797678,46.4469039,6.2989184,Tamoil
5905797683,46.4448421,6.2972219,Socar
5924411446,47.1721081,8.5109711,Socar
5940499368,47.2457204,8.5325333,Migrol Tankstelle Hausen a.A.
5948084114,47.4969811,7.6092816,Gasverbund Mittelland AG
5989533166,47.1310714,7.2445162,Le Garage
6002697604,47.0250676,8.3067359,Shell
6002697605,47.0254205,8.3061411,Avia
6051671827,46.967471,7.1239746,AVIA
6051671832,46.9665151,7.1239378,Migrol
6076240798,47.2484602,8.5303804,Agrola Albisstrasse
6088224395,47.288847,8.7120186,Ruedi Rüssel
6090147784,47.4870584,9.3025398,Studerus
6104266824,46.8464072,9.5113263,Eni
6109275785,46.9355169,7.4155811,Agrola
6109419085,46.6788715,7.8513205,Coop
6111365297,46.8564624,9.5345568,Eni
6111365298,46.8564912,9.5349676,Eni
6120031542,47.4811737,7.9759872,Agrola
6152961334,46.7512074,8.0508374,Oeltrans
6171424585,46.3183705,7.6029076,Tamoil
6177659238,47.1973535,7.4258247,Migrol Tankstelle Bettlach
6180364746,47.5967675,8.6695533,Gewerbehaus 5
6180769025,47.2954643,9.0939716,Erdgas
6184252057,46.8378294,9.463571,Shell
6184579379,46.8520803,9.505097,Avia
6193616973,47.5465053,8.8417873,Agrola
6199021685,47.4622999,9.0252666,Carrosserie & Gascenter GmbH
6216963685,46.308748,7.6520046,coop pronto
6223284379,47.6511794,8.6527307,Garage Bolli
6233652366,46.3375414,6.930405,eni
6233652367,46.3392448,6.9318739,eni
6243050151,46.7914783,7.6065344,Tamoil
6243074754,46.878274,7.6150749,Agrola
6251318201,47.5713016,8.9145118,BP
6275148234,46.5159036,6.5330847,BP
6301355684,47.060123,7.6254125,Avia
6320502728,46.9579824,7.4365282,Avia
6326773386,47.6685485,8.9856754,Eni Tankstelle
6328386301,46.9356717,7.4147502,Hess
6340573497,46.2243957,7.3014718,Shell
6367818185,46.9091338,6.6072462,MiniPrix
6389192666,47.1362761,7.9222507,Agrola
6431135289,46.2402169,9.135969,Avia
6434199505,46.9416185,7.3964881,Shell
6443603892,46.9423225,8.2719746,Agrola
6454393592,46.6616188,9.582481,Tamoil
6466301764,46.8088138,9.5322498,eni
6466435960,47.5242451,7.604393,Coop Tankstelle
6480377280,47.3264264,8.7832515,El Rolbanito
6485025085,47.5124357,7.7195888,Coop Tankstelle
6504630732,47.1087611,7.3592209,Ruedi Rüssel
6512147358,47.1113537,7.0780138,MERILLAT Garage Reparex
6530443337,47.1746331,7.3305535,Migrol
6530444717,47.1805165,7.3613778,Ruedi Rüssel
6584592532,47.2638374,8.4283067,Agrola Dorfstrasse
6603380443,47.2155334,8.6066365,Agrola
6611751135,47.3926384,8.475161,Scall
6613039261,47.4207777,9.0689778,Agrola
6631024141,46.461222,6.342127,Sirca
6680253709,47.4500535,8.7017149,BP Kemptthal Süd
6681758290,47.0089719,7.1610566,Landi
6700752605,46.967113,7.1893047,Agrola
6703441119,47.2800616,7.3895902,Coop Pronto
6762373476,46.8392537,8.1901457,BP
6774918763,47.0700524,8.2843619,Macro Swiss Energy AG
6779296606,46.9535776,7.1865606,Tolaj
6812900280,46.9663157,8.3529013,Migrol Service Stans
6835510255,47.3706167,7.9822724,BP
6853724786,47.4086524,9.3299532,Agrola
6868334960,46.9935595,7.4574499,Avia
6869927506,47.2984159,7.6155132,Tamoil
6874188877,46.2312389,7.3633881,Station de l'Etoile
6875534651,46.3117246,10.0625073,Garage Rossi
6899769189,46.1917406,9.0181221,Eni
6949608209,47.3545685,8.0546458,Eni
7003233349,47.3572373,8.6422562,Avia Ebmatingen
7021621077,46.8862804,7.5556095,Shell
7058350886,47.5319274,9.1891178,Migrol Service Sulgen
7064077373,47.217308,7.7686485,Coop
7088159116,45.8374642,9.0233567,Pemoil
7096350846,46.2016417,7.8414675,BP
7105143246,47.3617404,8.0514674,Eni
7111931002,47.2408639,8.714637,SOCAR Stäfa
7124256385,47.5670281,8.9084935,Coop
7129021552,46.2022406,6.1547596,BP
7159893353,46.9546204,7.4771273,Coop
7169643795,46.3090876,7.9714455,BP
7188187260,46.4013772,9.6955164,BP
7212592985,47.1910936,7.1123575,Bertschi Garage
7216902618,47.4157791,7.082515,Shop'Ajoie
7227684701,47.4485975,8.1437519,Migrol Tankstelle Schinznach Dorf
7234871003,47.4224599,9.5513276,Agrola
7235474663,47.4158185,7.0796919,Coop Pronto
7283569729,47.6927894,8.6233036,SOCAR Rheinfall
7319282794,46.5573021,9.6248697,AVIA
7352171273,46.5121581,6.6592735,Station BP
7358597529,47.7099891,8.8209668,SOCAR Ramsen
7390911007,47.3700201,8.0791765,Benzindiscount
7403418119,47.4017851,8.4526451,Avia Industriestrasse
7419682648,47.5634184,8.907842,Shell Frauenfeld
7419682650,47.562051,8.9057258,Migrol Tankstelle Frauenfeld
7443294871,46.7962334,7.1437256,Minipirix
7444398176,47.1072197,8.0848217,Agrola Landi
7463799585,47.3115525,7.8947767,Migrol Service Rothrist
7473300628,47.5260002,8.2424829,Coop Tankstelle Würenlingen
7590744179,47.3158438,7.800985,Frey Transport
7598222946,47.3527198,8.2539146,Benzin Discount
7600258535,47.4648644,7.8467838,Coop
7600260673,47.5520329,7.8035659,Coop Tankstelle
7600279693,47.4388056,7.5286512,Coop Tankstelle
7600324461,47.6394892,9.2031885,Coop Tankstelle
7600332343,47.1938289,8.8172135,Coop Tankstelle
7600356612,47.4797891,8.9949493,Coop Tankstelle
7600391895,47.3064785,8.8168191,Coop Tankstelle
7600435654,47.4122547,8.2230051,Coop Tankstelle
7673857088,47.5305185,7.6383204,SOCAR Muttenz
7673864020,47.5236976,7.7059913,Migrol Service Pratteln
7674184801,47.4392075,7.5385737,Migrol Shell Service Zwingen
7680137105,47.530595,7.6503672,AVIA
7682857071,47.5622618,9.1247731,SOCAR Weinfelden
7682864190,47.5182643,9.0007909,SOCAR Lommis
7682902458,47.6442767,9.1810486,Migrol Tankstelle AMAG Kreuzlingen
7682992145,47.4683386,9.109392,Migrol Service Zuzwil SG
7683096203,47.6488321,8.8700763,Migrol Tankstelle Eschenz
7684921023,47.2737376,8.9118883,Shell Wald ZH
7702297267,47.39634,8.4400249,SOCAR Schlieren
7702874122,47.2658346,8.7298735,SOCAR Oetwil am See
7703029466,47.2434711,8.9588423,SOCAR St. Gallenkappel
7704856269,47.2590921,8.1847435,Migrol Service Reinach AG
7706911945,47.5537444,7.6085199,Migrol Tankstelle St. Alban
7706952223,47.4145345,7.5430341,Migrol Tankstelle Brislach
7707275593,47.4786201,9.4756019,Tankstelle Migrol Service Goldach
7707526738,46.9653417,7.4577172,Migrol Service Wankdorf
7710511664,47.5587537,8.4345861,Migrol Tankstelle Weiach
7710695297,47.235038,8.1932781,Migrol Service Menziken
7710911042,47.3666153,8.3135613,Migrol Tankstelle
7710912979,47.3216477,8.037042,Migrol Tankstelle Holziken
7710938451,47.4833039,7.5395269,Migrol Tankstelle Ettingen
7710986564,47.1527031,8.1164104,Migrol Tankstelle AMAG Oberkirch
7761067547,47.4629814,9.0219896,Coop
7765697299,47.4919525,9.2444455,Agrola
7776671931,47.3667668,7.165339,Paupe Station
7784009538,46.3586227,6.2154636,Eni
7788196025,47.4399049,9.25461,Coop Pronto
7798693088,46.7388524,7.5219397,Oeltrans AG
7830137785,46.5371324,6.8287455,AB Box SA Self Stockage
7855094421,46.3456599,9.5962,Socar
7897609235,47.1620064,7.2857211,Avia
7903295171,47.1435298,7.6673585,LMG
7904036275,46.3998649,8.1339393,BP
7906538121,47.1146897,7.8652437,Fredys Tankstelle
7914281885,47.3384962,8.5404282,Hafen Wollishofen
7922806895,47.4801086,9.5316053,Shell Staad
7940332961,46.5007788,6.4817052,Friderici
7945556109,45.9852367,8.8902769,Coop
7976103204,47.4795882,9.5281745,Avia
8009892659,47.0014945,7.2738638,Garage Bill AG
8042153992,46.9181094,7.1118589,Landi
8050268168,47.0686334,7.5779079,Avia
8091536612,46.8395485,7.5437947,Agrola
8143654398,47.5849101,8.2449029,Ruedi Rüssel
8143698924,47.600102,8.226213,Ruedi Rüssel
8151175308,46.6017536,6.6142359,Tamoil
8168277323,47.2053231,7.5502446,Shell Zuchwil
8174535549,47.3870154,8.1647745,Coop
8191417545,47.4306294,8.6875185,Garage plus
8195983410,46.267267,6.9530296,Shell
8198230979,46.9332438,7.4225978,Tamoil
8262631150,47.4154408,8.7205647,Agrola
8262954422,46.9527565,7.5426977,Agrola TopShop
8278567115,47.360375,8.793889,Lenzlinger Tankstellen
8283191345,47.0916998,6.8409795,Eni
8308068118,47.3643909,9.3157311,Station 2-temps
8308068119,47.4426872,9.4680306,Station 2-temps
8308068120,46.7242797,7.0687385,Station 2-temp
8308068121,46.7495176,7.2058237,Station 2-temps
8308068122,46.9550164,7.2642018,Station 2-temps
8308068217,47.4071373,9.3095455,Station 2-temps
8308068218,46.7577305,7.2090563,Station 2-temps
8308068220,46.8214389,7.1071176,Station 2-temps
8308068317,46.736086,7.0204126,Station 2-temps
8308068318,46.7266207,7.1354654,Station 2-temp
8308068417,46.8952853,7.1681614,Station 2-temps
8308068517,46.6189802,6.9822323,Station 2-temps
8308068518,46.5325365,6.8502345,Station 2-temps
8308068617,46.987712,6.9182069,Quai Louis Perrier
8311303429,47.1926538,7.7093788,Migrol
8357790358,47.4201113,8.2741527,Ruedi Rüssel Tankstelle
8406421688,46.5578792,6.6358478,BP
8422020064,47.5576214,7.5740822,Shell
8478613548,47.7049065,8.6276122,Avia Tankstelle
8489547481,46.1983284,8.750402,Eni
8539689215,46.8795677,7.0439852,Eni
8544380874,47.6867256,8.7579241,Freie Tankstelle Leutenegger
8568950563,47.1280099,8.892057,OIL!
8569355617,46.1983931,8.7502106,City Shop & Snack Bar
8658071193,47.5732888,8.5601608,Agrola
8708689896,47.1173085,7.293585,Voegtlin-Meyer
8745217408,46.7433398,7.6273964,Coop pronto
8781440145,47.3892962,8.2044935,Coop
8809275654,46.0088569,9.0086354,Mondial Change
8831061035,47.4611186,7.8200162,Nebiker
8862668023,46.5550461,7.3731734,Ruedi Rüssel
8863909474,47.5485082,7.6284867,Coop Tankstelle
8872977825,46.3344625,9.5371058,Agip
8886970113,47.5648913,8.867495,Tankstelle Hilzinger
8897241656,46.9880195,7.3832881,Agrola
8897803330,47.196558,8.4350498,BP
8901334846,47.1544642,9.0304894,Tankstelle Autoland Reust - Günstig Tanken
8920626404,46.8009875,7.1226739,Baechler 24/24
8922195925,46.5313088,9.874205,Socar
8923044561,46.7975405,6.7540794,Agrola
8963692502,46.616023,6.6597548,Agrola
9005199657,47.3251676,8.7859423,AVIA
9025347030,47.2959533,7.9323762,Agrola Bleicheweg
9028879510,47.2244303,6.9690656,Relais des Franches
9032304502,46.0324071,8.9227861,migrolino Manno
9032714705,46.2289037,7.3449299,Shell
9032746232,46.2278206,7.3413792,Eni
9038994452,47.1938251,7.1420695,Automobiles Jäggi
9040067319,46.2264635,7.3364342,Combustia
9043472190,46.2245336,7.3092702,Migrol
9043505782,46.9380747,6.670516,Garage Touring SA
9050155305,47.0717197,8.379486,Avia Tankstellenshop
9069374017,46.2173995,7.3004324,Tamoil
9069769511,46.2244627,7.3029534,Coop
9074742122,46.9798965,7.7395374,Landi Tankstelle
9080804160,47.4186567,9.2485588,Rufer
9081607347,46.7110859,9.4354918,Agrola
9097117332,47.4982955,8.75433,Etzelpark Winti Benzin
9102042648,46.2125383,7.0055897,Tamoil
9106167326,46.2225578,7.2989732,Tamoil
9115798551,46.2238938,7.2995002,Eni
9149969124,47.3892741,8.2942862,Gratank AG
9168386810,46.970341,7.4971224,Agrola
9255380791,46.7977979,7.119166,Tamoil
9267465681,46.3106978,7.530899,Garage du Rocher
9267711019,46.3041242,7.5394233,Tamoil
9267750693,46.2881799,7.5212794,BP
9267950391,46.4685376,7.28551,SOCAR
9285352215,47.1491369,9.1428786,Agrola
9289206906,46.6731761,6.9262151,Tamoil
9303633585,46.7987465,7.1231284,Migrol
9349521108,47.4611631,8.5183392,Avia
9404456365,46.2220024,7.2701784,Station de Vétroz
9408619653,47.148369,6.8920997,G.S.H.C
9420034735,47.3807486,8.6828929,Coop
9424019827,46.4421373,6.8874473,Avia
9424019829,46.4409746,6.8910365,tamoil
9465566396,47.0005656,8.6100904,Avia
9534195025,46.2368926,10.138189,Eni
9597538969,47.1221867,9.3158581,Agrola
9687983298,46.8328554,6.8445127,Jubin
9768345585,47.4199227,9.3626561,Avia
9784023917,47.1890951,7.973966,Shell Nebikon
9795472545,46.6841076,7.0915588,Tamoil
9822086386,47.3342316,9.4628984,Kreuzgarage Eggerstanden
9823820576,47.3998966,9.3593068,Spurt
9837839917,46.8153353,6.8949766,Mini Prix
9846257247,46.7914507,7.160829,Tamoil
9909993062,46.5212191,6.5860549,Socar
9913053661,46.1465185,7.1681404,Agrola
9914493267,46.0538992,6.9514708,BP
9915244118,47.1548108,8.7214644,Agrola
9922434457,47.4072998,9.3025813,BP Tankstelle St. Gallen West
9931250917,46.7947659,9.8229588,Gredig
9931694417,46.7976404,9.8277921,Coop Pronto
9938824490,46.7805095,7.0875182,Coop
9942407242,46.6992001,9.4523546,Ruedi Rüssel gas station
9949277157,47.4377167,9.3885251,Avia
9949283932,47.4370362,9.3878786,Avia
9950963590,47.3868161,9.5544133,Freie Tankstelle Lüchingen
9965475815,46.2828504,6.9444274,Migrol
9967850151,47.409667,9.3334748,Tamoil
9983081873,47.3319026,9.4128759,Socar Appenzell
9995677989,47.3412872,7.2100952,Gisiger
9997181589,46.3958224,9.2311288,ecsa
10031143191,46.8153985,6.8895371,Agrola
10031156992,46.8182886,6.9269308,Varo
10052226162,47.3323049,7.841259,BP
10052272014,47.3719364,7.9874672,Ruedi Rüssel
10075204701,46.3416864,8.9766634,Eni
10080554886,46.682132,7.085098,Shell La Gruyère
10080554887,46.6819186,7.0852697,Shell La Gruyère
10081431035,47.6406736,9.1921632,ecostop
10106228306,46.6233691,7.0564137,Migrolino
10119084857,46.5189812,6.4288912,Eni
10125913623,47.2654585,8.1765253,Coop
10148228397,47.3551309,7.9016963,Rudi Rüssel
10160267814,47.516341,8.6782876,Tamoil Tankstelle
10167697119,46.9903989,7.4772942,Tamoil - Grauholz Nord
10178629981,46.8011975,7.1190206,Die Post
10184308617,47.6842441,8.6121579,BP
10225937410,47.0827914,7.3978637,GTK Garage Tankstelle Knörr
10229045903,47.4410326,9.2549845,BP
10239196021,47.0483679,8.6162866,Avia
10247624431,47.6531191,9.1785581,Avia
10251388827,47.4153295,9.2647917,Etzelpark Gossau Benzin
10254598355,46.6441223,6.6365102,Agrola
10259118070,46.9198947,9.5539178,Avia
10266055340,47.4140949,9.3114861,Agrola
10266055344,47.4164065,9.3114971,Avia
10284494736,47.1645918,8.2842403,Eni
10292982081,46.9545534,6.8483899,Centre de L'ile
10297337892,46.9538117,6.8450267,Migrol
10301090417,47.4136465,9.2709945,BP
10301090422,47.4135001,9.2705952,Coop
10302641193,47.3190444,9.1737481,Luchs Oil
10539012266,47.3724409,8.0476793,Midland Tankstelle
10577618898,47.5436874,8.0965348,Elektroanlagen Schraner
10584053766,46.4602078,6.8485416,Station Shop 35
10588981463,47.2970951,8.2305298,Migrol Tankstelle
10592141971,47.3634557,9.1428257,Agrola
10592396705,47.2645494,8.1741884,Agrola Tankstelle & Top Shop
10594105906,47.3698458,7.969045,LPG Garage Plus
10594373271,47.4279418,9.1285631,Avia
10649533003,46.2069399,7.0077649,Agrola
10692702753,47.5452328,9.1810113,Agrola
10692840962,47.4424648,9.4129017,Sprenger AG
10701492029,46.6567027,6.5536326,Varo
10706845164,47.2584701,9.1412311,Avia
10707802410,47.631078,8.7866392,Agrola
10735410458,46.1811582,6.1435373,Jubin Station des Moraines
10778337376,47.445632,9.6481918,Agrola
10778637635,46.4659604,6.2586972,Mini Prix
10819794959,47.4689633,8.1883313,Voegtlin-Mayer AG
10853978005,46.7827906,7.0590439,Centre de Rosé
10873466298,47.5738509,8.5991929,Avia
10922072279,46.8733565,8.6503185,Hubrol
10924914755,46.9784186,7.1969737,Avia
10933576878,46.7864807,7.0792261,Migrol
11011989907,46.6548239,6.901059,Mini Prix
11022607283,46.8469856,9.5210285,Socar
11023179026,47.0564169,7.0608198,BP
11030760094,46.8461265,9.5118429,Eni
11033130851,46.8484725,9.5141809,BP
11042949086,46.7433135,8.994157,Shell
11046161442,47.5276786,9.1956309,Avia
11062916975,47.0682006,7.60261,Ruedi Rüssel
11069339336,46.6184772,9.9973842,BEBECO
11118897541,46.7884241,10.2698346,Tankstelle Nairs
11118919303,47.3829981,9.5546386,Avia
11143314072,47.4752485,9.1521361,Agrola
11185679536,46.2253583,7.2917323,Shell
11247572502,47.2868609,8.6070774,Avia
11247572508,47.2979957,8.5979311,Avia
11281280991,45.8349468,9.0311046,Silo Shop
11281280992,45.8348728,9.0352614,BP
11295917428,47.3481465,7.3190007,Paupe Station
11300071656,47.4395698,7.5360001,avia
11304024244,47.5068962,7.9269273,Hassler
11304024245,47.5023368,7.931026,Moesch
11304024246,47.4975167,7.9316518,Agrola
11323344293,47.3020303,8.8456263,AVIA
11329043056,47.2556356,8.687028,Avia
11382477014,46.7735179,7.1620863,Coop Pronto
11387433445,46.5693523,6.5501417,Station carburant privée Bobst
11446164240,47.4888862,8.5944169,Agrola
11471042330,47.0490812,7.0351019,Miniprix
11486230578,47.3998792,8.6249075,Tamoil
11486230579,47.3945209,8.6548163,Gfenn Benzin
11486230581,47.3823596,8.6713659,Volkiland
11491797795,47.3700039,9.3414755,Avia
11531578139,47.1698136,9.4592347,Agrola
11577930778,46.4870875,7.2030115,Avia
11660181226,47.717899,8.6613211,Agrola
11662707353,46.2295727,7.4326229,Combustia
11669936644,46.858436,8.6393863,Hubrol
11739615586,47.4494029,7.6735575,Avia
11762032006,47.1111835,7.3915985,Avia
11762032008,47.1131216,7.3897048,Ruedi Rüssel
11780219731,47.0980001,8.2066437,Discount Benzin
11842384092,47.2859651,8.617557,Agrola
11860822241,47.3197266,8.0475906,Ri
11930473528,47.1110336,7.3001017,Migrol
11932344580,46.9684833,9.6871966,Jecklin AG
11932647736,47.2689772,8.2024339,BP
11954518069,47.0154959,7.0543893,Miniprix
11985186821,47.2496626,8.1850667,August Hüsler AG
11985903267,46.6075386,6.9126746,Garage du Crêt
12022643169,47.0863436,8.3099826,Agrola
12027900278,46.2098077,6.1463764,Station Tamoil Thalberg
12047680785,47.5073173,7.6024308,Eni
12068941569,46.6204506,7.0584084,Garage Moderne
12071162249,47.1967629,9.3059076,Avia
12071370924,46.4669628,8.2353065,Fahrzeug Center Goms
12090456797,47.1803761,6.9086736,Jubin
12104188856,47.0817744,8.2831929,Avia
12110187999,47.310061,8.0516207,Ruedi Rüssel
12119983050,47.5336642,7.9877693,Landi
12122044532,46.4253771,6.2543396,Tamoil
12135415478,46.8219482,6.9407194,Tamoil
12144702940,46.5084492,8.7004146,SOCAR
12149547301,46.6970321,9.4486163,Avia
12163869425,47.5162612,8.7662624,Coop
12164290896,47.360316,7.3035119,Jubin
12165140846,47.0960168,9.354558,Coop Tankstelle
12174322144,47.4719148,8.0525728,Ruedi Rüssel
12234968387,47.3759853,9.5545369,Agrola
12239238293,47.424408,9.6146484,Agrola
12239502112,47.4162675,9.633039,BP
12239635697,47.4478331,9.6498906,Agrola
12257995573,46.6998035,9.4396487,Moveri Thusis
12258148702,47.0389379,8.190357,Migrol Tankstelle Touring Garage Malters
12286105196,47.0648557,8.5228631,Shell
12288566614,47.2693258,8.2023818,Agrola LPG
12310159890,47.3362305,8.6200573,Avia
12323908572,47.4137263,8.1923977,volg
12328531083,46.3931329,6.2369921,Coop Pronto
12330313001,47.5380095,8.289505,Avia Endingen
12362263057,46.7308692,6.386927,BP
12384969127,47.2820641,7.9395837,Agrola
12423040642,45.8851218,8.9810923,Grenacher
12441666965,47.4510858,9.1629597,Avia
12442390558,46.177187,8.9972492,City
12468546271,47.4333233,7.7152459,ecostop
12475588078,47.5219684,8.327924,Voegtlin - Meyer AG
12475588079,47.5402322,8.2900212,Cäsar GmbH
12475588080,47.5662231,8.2882629,Kreiseltankstelle & Shop
12496851118,46.8708387,7.122643,Agrola
12516786367,45.8571573,8.9671578,BP
12536015546,47.4259519,7.5095582,CNG gaz energie
12578528993,47.4146255,7.5017659,Agrola
12620018704,46.8278125,7.1452152,Coop Pronto
12643326661,46.843093,6.8544324,Migrol
